{"type": "FeatureCollection", "metadata": {"titulo": "Comunidades campesinas (centroides)", "fuente": "CooperAcción — geoportal Espacio de Cooperación (GeoServer).", "estado": "verificado", "actualizado": "2026-06-30"}, "features": [{"type": "Feature", "geometry": {"type": "Point", "coordinates": [-76.56917, -11.15166]}, "properties": {"nombre": "Santa Catalina"}}, {"type": "Feature", "geometry": {"type": "Point", "coordinates": [-69.80901, -15.6695]}, "properties": {"nombre": "Siale"}}, {"type": "Feature", "geometry": {"type": "Point", "coordinates": [-71.88462, -13.47796]}, "properties": {"nombre": "Matinga"}}, {"type": "Feature", "geometry": {"type": "Point", "coordinates": [-71.54789, -13.61691]}, "properties": {"nombre": "Ccatcca Pampa"}}, {"type": "Feature", "geometry": {"type": "Point", "coordinates": [-75.70196, -11.38791]}, "properties": {"nombre": "Ninatambo"}}, {"type": "Feature", "geometry": {"type": "Point", "coordinates": [-76.87203, -10.70104]}, "properties": {"nombre": "Mallay"}}, {"type": "Feature", "geometry": {"type": "Point", "coordinates": [-73.00999, -13.62035]}, "properties": {"nombre": "Llactabamba"}}, {"type": "Feature", "geometry": {"type": "Point", "coordinates": [-71.16801, -14.56346]}, "properties": {"nombre": "Urinsaya Ccollana"}}, {"type": "Feature", "geometry": {"type": "Point", "coordinates": [-69.86133, -14.39889]}, "properties": {"nombre": "Oruro"}}, {"type": "Feature", "geometry": {"type": "Point", "coordinates": [-77.48014, -5.5527]}, "properties": {"nombre": "El Milagro"}}, {"type": "Feature", "geometry": {"type": "Point", "coordinates": [-70.20636, -14.62685]}, "properties": {"nombre": "Ajanani Grande"}}, {"type": "Feature", "geometry": {"type": "Point", "coordinates": [-70.06949, -14.98956]}, "properties": {"nombre": "Tiruyo"}}, {"type": "Feature", "geometry": {"type": "Point", "coordinates": [-72.00356, -13.7591]}, "properties": {"nombre": "Rocco"}}, {"type": "Feature", "geometry": {"type": "Point", "coordinates": [-69.4087, -16.74556]}, "properties": {"nombre": "Tuntipucara"}}, {"type": "Feature", "geometry": {"type": "Point", "coordinates": [-76.27672, -9.79767]}, "properties": {"nombre": "Tambo de San José"}}, {"type": "Feature", "geometry": {"type": "Point", "coordinates": [-69.18063, -15.21822]}, "properties": {"nombre": "Kantati Ururi"}}, {"type": "Feature", "geometry": {"type": "Point", "coordinates": [-78.81387, -6.32741]}, "properties": {"nombre": "Chipuluc"}}, {"type": "Feature", "geometry": {"type": "Point", "coordinates": [-69.19079, -15.24]}, "properties": {"nombre": "Lipichicarca"}}, {"type": "Feature", "geometry": {"type": "Point", "coordinates": [-75.27865, -12.70057]}, "properties": {"nombre": "San Antonio"}}, {"type": "Feature", "geometry": {"type": "Point", "coordinates": [-70.04614, -15.58526]}, "properties": {"nombre": "Collana Segunda"}}, {"type": "Feature", "geometry": {"type": "Point", "coordinates": [-71.1476, -14.27849]}, "properties": {"nombre": "Patacalasaya"}}, {"type": "Feature", "geometry": {"type": "Point", "coordinates": [-76.34722, -9.72779]}, "properties": {"nombre": "Santa Rosa de Sirabamba Alta"}}, {"type": "Feature", "geometry": {"type": "Point", "coordinates": [-76.15822, -12.75607]}, "properties": {"nombre": "Santa Cruz"}}, {"type": "Feature", "geometry": {"type": "Point", "coordinates": [-73.21015, -4.30494]}, "properties": {"nombre": "El Chino"}}, {"type": "Feature", "geometry": {"type": "Point", "coordinates": [-70.77748, -15.21833]}, "properties": {"nombre": "Jose Luis de la Puente Uceda de Chivay"}}, {"type": "Feature", "geometry": {"type": "Point", "coordinates": [-70.33374, -15.79027]}, "properties": {"nombre": "Canllacollo Jatunmayo"}}, {"type": "Feature", "geometry": {"type": "Point", "coordinates": [-70.4561, -15.56115]}, "properties": {"nombre": "Coachico"}}, {"type": "Feature", "geometry": {"type": "Point", "coordinates": [-71.55973, -15.56373]}, "properties": {"nombre": "Canocota"}}, {"type": "Feature", "geometry": {"type": "Point", "coordinates": [-76.25234, -12.06369]}, "properties": {"nombre": "Sunisica"}}, {"type": "Feature", "geometry": {"type": "Point", "coordinates": [-77.10457, -8.85452]}, "properties": {"nombre": "Canchabamba"}}, {"type": "Feature", "geometry": {"type": "Point", "coordinates": [-72.907, -15.329]}, "properties": {"nombre": "Toro"}}, {"type": "Feature", "geometry": {"type": "Point", "coordinates": [-72.21214, -13.3064]}, "properties": {"nombre": "Kacllaraccay"}}, {"type": "Feature", "geometry": {"type": "Point", "coordinates": [-79.874, -5.11864]}, "properties": {"nombre": "Santa Catalina de Moza"}}, {"type": "Feature", "geometry": {"type": "Point", "coordinates": [-72.4034, -13.58674]}, "properties": {"nombre": "Pantipata"}}, {"type": "Feature", "geometry": {"type": "Point", "coordinates": [-73.12457, -14.73839]}, "properties": {"nombre": "Pallancata"}}, {"type": "Feature", "geometry": {"type": "Point", "coordinates": [-71.62495, -14.79218]}, "properties": {"nombre": "Ccamanocca"}}, {"type": "Feature", "geometry": {"type": "Point", "coordinates": [-73.9783, -13.12899]}, "properties": {"nombre": "Huaychao"}}, {"type": "Feature", "geometry": {"type": "Point", "coordinates": [-71.94257, -13.82354]}, "properties": {"nombre": "Huarobamba"}}, {"type": "Feature", "geometry": {"type": "Point", "coordinates": [-73.1283, -13.39584]}, "properties": {"nombre": "Incahuasi"}}, {"type": "Feature", "geometry": {"type": "Point", "coordinates": [-75.32522, -11.9443]}, "properties": {"nombre": "Mito"}}, {"type": "Feature", "geometry": {"type": "Point", "coordinates": [-77.42963, -8.92587]}, "properties": {"nombre": "Lucma Tayabamba"}}, {"type": "Feature", "geometry": {"type": "Point", "coordinates": [-70.34756, -15.54294]}, "properties": {"nombre": "Corisuyo"}}, {"type": "Feature", "geometry": {"type": "Point", "coordinates": [-78.63234, -7.85705]}, "properties": {"nombre": "Luis de la Puente Uceda"}}, {"type": "Feature", "geometry": {"type": "Point", "coordinates": [-77.56119, -7.82723]}, "properties": {"nombre": "Andres Razuri"}}, {"type": "Feature", "geometry": {"type": "Point", "coordinates": [-77.0705, -9.29762]}, "properties": {"nombre": "Acchas"}}, {"type": "Feature", "geometry": {"type": "Point", "coordinates": [-72.11329, -13.46086]}, "properties": {"nombre": "Ayarmaca"}}, {"type": "Feature", "geometry": {"type": "Point", "coordinates": [-78.59255, -7.17033]}, "properties": {"nombre": "Sexemayo Lote II"}}, {"type": "Feature", "geometry": {"type": "Point", "coordinates": [-75.83203, -12.99893]}, "properties": {"nombre": "Tupac Amaru de Azangaro"}}, {"type": "Feature", "geometry": {"type": "Point", "coordinates": [-77.42777, -8.60495]}, "properties": {"nombre": "Pauca"}}, {"type": "Feature", "geometry": {"type": "Point", "coordinates": [-76.57065, -11.18702]}, "properties": {"nombre": "Santa Cruz"}}, {"type": "Feature", "geometry": {"type": "Point", "coordinates": [-72.17521, -13.46421]}, "properties": {"nombre": "Haparquilla Occoruro"}}, {"type": "Feature", "geometry": {"type": "Point", "coordinates": [-77.75026, -6.08613]}, "properties": {"nombre": "Chiliquin"}}, {"type": "Feature", "geometry": {"type": "Point", "coordinates": [-71.52259, -14.21491]}, "properties": {"nombre": "Pongoña"}}, {"type": "Feature", "geometry": {"type": "Point", "coordinates": [-77.42568, -8.8824]}, "properties": {"nombre": "La Libertad"}}, {"type": "Feature", "geometry": {"type": "Point", "coordinates": [-71.17331, -14.32639]}, "properties": {"nombre": "Huiscachani"}}, {"type": "Feature", "geometry": {"type": "Point", "coordinates": [-71.27339, -14.34015]}, "properties": {"nombre": "Totorani Hercca"}}, {"type": "Feature", "geometry": {"type": "Point", "coordinates": [-69.81751, -15.693]}, "properties": {"nombre": "Miraflores Yapura"}}, {"type": "Feature", "geometry": {"type": "Point", "coordinates": [-71.3595, -13.61709]}, "properties": {"nombre": "Tayancani"}}, {"type": "Feature", "geometry": {"type": "Point", "coordinates": [-71.61242, -13.5089]}, "properties": {"nombre": "Piscohuata"}}, {"type": "Feature", "geometry": {"type": "Point", "coordinates": [-72.07981, -14.13405]}, "properties": {"nombre": "Huayllayoc"}}, {"type": "Feature", "geometry": {"type": "Point", "coordinates": [-71.81619, -15.68946]}, "properties": {"nombre": "Maca"}}, {"type": "Feature", "geometry": {"type": "Point", "coordinates": [-75.03972, -12.30661]}, "properties": {"nombre": "San Pedro de Mullaca"}}, {"type": "Feature", "geometry": {"type": "Point", "coordinates": [-77.21307, -9.15786]}, "properties": {"nombre": "Union Caninaco"}}, {"type": "Feature", "geometry": {"type": "Point", "coordinates": [-71.34282, -14.02474]}, "properties": {"nombre": "Paccobamba"}}, {"type": "Feature", "geometry": {"type": "Point", "coordinates": [-72.14224, -13.46854]}, "properties": {"nombre": "Anansaya Urinsaya Collana"}}, {"type": "Feature", "geometry": {"type": "Point", "coordinates": [-71.32324, -14.09692]}, "properties": {"nombre": "Cullcuire Salloca"}}, {"type": "Feature", "geometry": {"type": "Point", "coordinates": [-71.41359, -14.23932]}, "properties": {"nombre": "Layme"}}, {"type": "Feature", "geometry": {"type": "Point", "coordinates": [-81.01193, -4.20047]}, "properties": {"nombre": "Mancora"}}, {"type": "Feature", "geometry": {"type": "Point", "coordinates": [-71.33266, -14.57785]}, "properties": {"nombre": "Vilcamarca Hospital"}}, {"type": "Feature", "geometry": {"type": "Point", "coordinates": [-70.17754, -15.23724]}, "properties": {"nombre": "Collana"}}, {"type": "Feature", "geometry": {"type": "Point", "coordinates": [-73.65907, -15.46796]}, "properties": {"nombre": "Maraycasa Tambo Caylla"}}, {"type": "Feature", "geometry": {"type": "Point", "coordinates": [-74.14872, -13.60323]}, "properties": {"nombre": "Matero"}}, {"type": "Feature", "geometry": {"type": "Point", "coordinates": [-70.00548, -13.90746]}, "properties": {"nombre": "Anana"}}, {"type": "Feature", "geometry": {"type": "Point", "coordinates": [-71.87885, -13.45013]}, "properties": {"nombre": "Huancalle"}}, {"type": "Feature", "geometry": {"type": "Point", "coordinates": [-75.23097, -13.51015]}, "properties": {"nombre": "Marcas Pampapuquio"}}, {"type": "Feature", "geometry": {"type": "Point", "coordinates": [-76.77317, -11.43989]}, "properties": {"nombre": "Marco"}}, {"type": "Feature", "geometry": {"type": "Point", "coordinates": [-73.81934, -13.61319]}, "properties": {"nombre": "Parcco"}}, {"type": "Feature", "geometry": {"type": "Point", "coordinates": [-76.33191, -12.25718]}, "properties": {"nombre": "Mariatana"}}, {"type": "Feature", "geometry": {"type": "Point", "coordinates": [-77.85497, -8.64369]}, "properties": {"nombre": "Ranguas"}}, {"type": "Feature", "geometry": {"type": "Point", "coordinates": [-70.66976, -13.80201]}, "properties": {"nombre": "Altiplano de Chia"}}, {"type": "Feature", "geometry": {"type": "Point", "coordinates": [-73.55596, -14.89021]}, "properties": {"nombre": "Calpamayo"}}, {"type": "Feature", "geometry": {"type": "Point", "coordinates": [-74.00604, -13.09645]}, "properties": {"nombre": "General Cordova de Socos"}}, {"type": "Feature", "geometry": {"type": "Point", "coordinates": [-76.32183, -9.80361]}, "properties": {"nombre": "Santiago de Llacón"}}, {"type": "Feature", "geometry": {"type": "Point", "coordinates": [-71.43887, -14.43939]}, "properties": {"nombre": "Consa"}}, {"type": "Feature", "geometry": {"type": "Point", "coordinates": [-71.57392, -13.75347]}, "properties": {"nombre": "Ttio"}}, {"type": "Feature", "geometry": {"type": "Point", "coordinates": [-76.57227, -9.81068]}, "properties": {"nombre": "Chavinillo"}}, {"type": "Feature", "geometry": {"type": "Point", "coordinates": [-70.55826, -15.43457]}, "properties": {"nombre": "Pucarini"}}, {"type": "Feature", "geometry": {"type": "Point", "coordinates": [-73.92539, -13.68922]}, "properties": {"nombre": "San Jose de Churia"}}, {"type": "Feature", "geometry": {"type": "Point", "coordinates": [-77.82569, -6.34954]}, "properties": {"nombre": "San Isidro del Mayno"}}, {"type": "Feature", "geometry": {"type": "Point", "coordinates": [-74.54371, -12.56902]}, "properties": {"nombre": "Pucaccasa"}}, {"type": "Feature", "geometry": {"type": "Point", "coordinates": [-70.32169, -14.53912]}, "properties": {"nombre": "Nueva Esperanza de Bajo Chilluma"}}, {"type": "Feature", "geometry": {"type": "Point", "coordinates": [-71.43044, -13.67805]}, "properties": {"nombre": "Llullucha"}}, {"type": "Feature", "geometry": {"type": "Point", "coordinates": [-70.14471, -15.23895]}, "properties": {"nombre": "Accopunco"}}, {"type": "Feature", "geometry": {"type": "Point", "coordinates": [-73.33409, -13.5628]}, "properties": {"nombre": "Puihualla Alta"}}, {"type": "Feature", "geometry": {"type": "Point", "coordinates": [-77.03464, -10.09174]}, "properties": {"nombre": "Pomapata"}}, {"type": "Feature", "geometry": {"type": "Point", "coordinates": [-68.97095, -16.19892]}, "properties": {"nombre": "Sihualaya"}}, {"type": "Feature", "geometry": {"type": "Point", "coordinates": [-76.95716, -9.69618]}, "properties": {"nombre": "José Crespo y Castillo"}}, {"type": "Feature", "geometry": {"type": "Point", "coordinates": [-70.36134, -14.61714]}, "properties": {"nombre": "Jila Inampo"}}, {"type": "Feature", "geometry": {"type": "Point", "coordinates": [-77.13539, -10.16072]}, "properties": {"nombre": "Chiquian"}}, {"type": "Feature", "geometry": {"type": "Point", "coordinates": [-72.25721, -14.85512]}, "properties": {"nombre": "Chucñihuaqui"}}, {"type": "Feature", "geometry": {"type": "Point", "coordinates": [-76.91582, -10.77909]}, "properties": {"nombre": "Andajes"}}, {"type": "Feature", "geometry": {"type": "Point", "coordinates": [-71.84959, -14.54297]}, "properties": {"nombre": "Ccollana"}}, {"type": "Feature", "geometry": {"type": "Point", "coordinates": [-69.55613, -16.03474]}, "properties": {"nombre": "Alpacuyo Kolakollive"}}, {"type": "Feature", "geometry": {"type": "Point", "coordinates": [-79.84006, -4.61285]}, "properties": {"nombre": "Marmas"}}, {"type": "Feature", "geometry": {"type": "Point", "coordinates": [-77.58159, -10.09254]}, "properties": {"nombre": "Huacyon"}}, {"type": "Feature", "geometry": {"type": "Point", "coordinates": [-79.972, -4.83721]}, "properties": {"nombre": "Masias"}}, {"type": "Feature", "geometry": {"type": "Point", "coordinates": [-74.91842, -12.41296]}, "properties": {"nombre": "Uyque San Vicente y Anexos"}}, {"type": "Feature", "geometry": {"type": "Point", "coordinates": [-77.60658, -9.45508]}, "properties": {"nombre": "Andres Avelino Caceres de Cuncashca"}}, {"type": "Feature", "geometry": {"type": "Point", "coordinates": [-79.72193, -5.14995]}, "properties": {"nombre": "Yamango"}}, {"type": "Feature", "geometry": {"type": "Point", "coordinates": [-74.71999, -12.52371]}, "properties": {"nombre": "Alianza Andino"}}, {"type": "Feature", "geometry": {"type": "Point", "coordinates": [-72.24319, -14.1737]}, "properties": {"nombre": "Choaquere"}}, {"type": "Feature", "geometry": {"type": "Point", "coordinates": [-74.04499, -13.28535]}, "properties": {"nombre": "Jesus Nazareno de Chontaca"}}, {"type": "Feature", "geometry": {"type": "Point", "coordinates": [-74.73394, -12.75345]}, "properties": {"nombre": "Chopcca"}}, {"type": "Feature", "geometry": {"type": "Point", "coordinates": [-71.32383, -14.3805]}, "properties": {"nombre": "Conde Viluyo"}}, {"type": "Feature", "geometry": {"type": "Point", "coordinates": [-79.88784, -4.76522]}, "properties": {"nombre": "San Andres de Montegrande"}}, {"type": "Feature", "geometry": {"type": "Point", "coordinates": [-72.20596, -13.51039]}, "properties": {"nombre": "Conchacalla y su Anexo Mantoclla"}}, {"type": "Feature", "geometry": {"type": "Point", "coordinates": [-75.16049, -12.88459]}, "properties": {"nombre": "Cachimayo"}}, {"type": "Feature", "geometry": {"type": "Point", "coordinates": [-69.63378, -16.1485]}, "properties": {"nombre": "Juventud Jichuccollo Antamarca"}}, {"type": "Feature", "geometry": {"type": "Point", "coordinates": [-76.28607, -10.06772]}, "properties": {"nombre": "Ñausa"}}, {"type": "Feature", "geometry": {"type": "Point", "coordinates": [-74.7705, -12.24929]}, "properties": {"nombre": "Quishuar"}}, {"type": "Feature", "geometry": {"type": "Point", "coordinates": [-76.58417, -10.7782]}, "properties": {"nombre": "Lancari"}}, {"type": "Feature", "geometry": {"type": "Point", "coordinates": [-77.26691, -9.094]}, "properties": {"nombre": "San Pedro de Canchabamba"}}, {"type": "Feature", "geometry": {"type": "Point", "coordinates": [-74.94792, -12.64285]}, "properties": {"nombre": "La Florida"}}, {"type": "Feature", "geometry": {"type": "Point", "coordinates": [-77.5175, -7.9434]}, "properties": {"nombre": "Jose de San Martin"}}, {"type": "Feature", "geometry": {"type": "Point", "coordinates": [-78.31262, -6.93514]}, "properties": {"nombre": "Sorochuco"}}, {"type": "Feature", "geometry": {"type": "Point", "coordinates": [-76.51057, -9.80922]}, "properties": {"nombre": "Ayapiteg"}}, {"type": "Feature", "geometry": {"type": "Point", "coordinates": [-71.33651, -14.56582]}, "properties": {"nombre": "Vilcamarca Hospital"}}, {"type": "Feature", "geometry": {"type": "Point", "coordinates": [-71.42371, -13.54473]}, "properties": {"nombre": "Hachacalla y su Anexo Ccolla"}}, {"type": "Feature", "geometry": {"type": "Point", "coordinates": [-77.07594, -10.33223]}, "properties": {"nombre": "Mangas"}}, {"type": "Feature", "geometry": {"type": "Point", "coordinates": [-77.82979, -8.63454]}, "properties": {"nombre": "Yanac"}}, {"type": "Feature", "geometry": {"type": "Point", "coordinates": [-79.62122, -4.70297]}, "properties": {"nombre": "Olleria"}}, {"type": "Feature", "geometry": {"type": "Point", "coordinates": [-72.09177, -14.22049]}, "properties": {"nombre": "Urubamba"}}, {"type": "Feature", "geometry": {"type": "Point", "coordinates": [-74.81427, -12.08689]}, "properties": {"nombre": "La Victoria Manchay"}}, {"type": "Feature", "geometry": {"type": "Point", "coordinates": [-69.29248, -16.72227]}, "properties": {"nombre": "Arconuma"}}, {"type": "Feature", "geometry": {"type": "Point", "coordinates": [-76.78749, -9.46202]}, "properties": {"nombre": "Chuquibamba"}}, {"type": "Feature", "geometry": {"type": "Point", "coordinates": [-71.38736, -14.30047]}, "properties": {"nombre": "Llallapara"}}, {"type": "Feature", "geometry": {"type": "Point", "coordinates": [-70.18672, -14.09048]}, "properties": {"nombre": "Upina"}}, {"type": "Feature", "geometry": {"type": "Point", "coordinates": [-75.00023, -12.2664]}, "properties": {"nombre": "Churampi"}}, {"type": "Feature", "geometry": {"type": "Point", "coordinates": [-69.70279, -15.66234]}, "properties": {"nombre": "Sancayuni de Amantani"}}, {"type": "Feature", "geometry": {"type": "Point", "coordinates": [-69.7144, -15.65432]}, "properties": {"nombre": "Lampayuni"}}, {"type": "Feature", "geometry": {"type": "Point", "coordinates": [-77.21067, -10.31822]}, "properties": {"nombre": "Canis"}}, {"type": "Feature", "geometry": {"type": "Point", "coordinates": [-77.45581, -8.64144]}, "properties": {"nombre": "Socosbamba"}}, {"type": "Feature", "geometry": {"type": "Point", "coordinates": [-77.23155, -9.09716]}, "properties": {"nombre": "Union Caninaco"}}, {"type": "Feature", "geometry": {"type": "Point", "coordinates": [-79.37961, -5.37429]}, "properties": {"nombre": "Huaricancha"}}, {"type": "Feature", "geometry": {"type": "Point", "coordinates": [-77.17506, -10.10455]}, "properties": {"nombre": "Carcas"}}, {"type": "Feature", "geometry": {"type": "Point", "coordinates": [-77.03898, -10.2473]}, "properties": {"nombre": "Pacllon"}}, {"type": "Feature", "geometry": {"type": "Point", "coordinates": [-71.04281, -16.69994]}, "properties": {"nombre": "Huasacache"}}, {"type": "Feature", "geometry": {"type": "Point", "coordinates": [-77.89761, -8.47179]}, "properties": {"nombre": "Aco"}}, {"type": "Feature", "geometry": {"type": "Point", "coordinates": [-74.26451, -12.78219]}, "properties": {"nombre": "Virgen del Carmen de Chinchay"}}, {"type": "Feature", "geometry": {"type": "Point", "coordinates": [-77.1449, -10.23258]}, "properties": {"nombre": "Cuspon"}}, {"type": "Feature", "geometry": {"type": "Point", "coordinates": [-75.24846, -11.97751]}, "properties": {"nombre": "Hualhuas"}}, {"type": "Feature", "geometry": {"type": "Point", "coordinates": [-76.13602, -9.76216]}, "properties": {"nombre": "Nuevo de Antapucro"}}, {"type": "Feature", "geometry": {"type": "Point", "coordinates": [-73.42263, -13.68228]}, "properties": {"nombre": "Ccompicancha"}}, {"type": "Feature", "geometry": {"type": "Point", "coordinates": [-74.28125, -13.07229]}, "properties": {"nombre": "La Florida"}}, {"type": "Feature", "geometry": {"type": "Point", "coordinates": [-71.23651, -14.20596]}, "properties": {"nombre": "Livincaya"}}, {"type": "Feature", "geometry": {"type": "Point", "coordinates": [-71.37878, -14.78351]}, "properties": {"nombre": "Huancane - Anta Ccollana"}}, {"type": "Feature", "geometry": {"type": "Point", "coordinates": [-74.51547, -12.59125]}, "properties": {"nombre": "Cconccorpata"}}, {"type": "Feature", "geometry": {"type": "Point", "coordinates": [-76.26214, -10.08147]}, "properties": {"nombre": "San Pedro de Cumbe"}}, {"type": "Feature", "geometry": {"type": "Point", "coordinates": [-79.18325, -6.88972]}, "properties": {"nombre": "Niepos"}}, {"type": "Feature", "geometry": {"type": "Point", "coordinates": [-76.74922, -10.94926]}, "properties": {"nombre": "Jucul"}}, {"type": "Feature", "geometry": {"type": "Point", "coordinates": [-76.68747, -9.31015]}, "properties": {"nombre": "San Pedro de Pariarca"}}, {"type": "Feature", "geometry": {"type": "Point", "coordinates": [-77.17899, -9.38265]}, "properties": {"nombre": "Yacya"}}, {"type": "Feature", "geometry": {"type": "Point", "coordinates": [-71.53226, -13.7413]}, "properties": {"nombre": "Urinccoscco"}}, {"type": "Feature", "geometry": {"type": "Point", "coordinates": [-80.37336, -4.98988]}, "properties": {"nombre": "Apostol Juan Bautista de Locuto / Tambo Grande"}}, {"type": "Feature", "geometry": {"type": "Point", "coordinates": [-77.11311, -10.73413]}, "properties": {"nombre": "Lascamayo"}}, {"type": "Feature", "geometry": {"type": "Point", "coordinates": [-77.00231, -10.39998]}, "properties": {"nombre": "Uramasa"}}, {"type": "Feature", "geometry": {"type": "Point", "coordinates": [-72.39167, -13.46119]}, "properties": {"nombre": "Ayaviri Ninamachi"}}, {"type": "Feature", "geometry": {"type": "Point", "coordinates": [-69.92246, -15.50184]}, "properties": {"nombre": "Santa Cruz de Capara"}}, {"type": "Feature", "geometry": {"type": "Point", "coordinates": [-71.65192, -13.41314]}, "properties": {"nombre": "Mika"}}, {"type": "Feature", "geometry": {"type": "Point", "coordinates": [-76.77977, -11.11821]}, "properties": {"nombre": "Carac"}}, {"type": "Feature", "geometry": {"type": "Point", "coordinates": [-75.05946, -12.72616]}, "properties": {"nombre": "Pueblo Libre"}}, {"type": "Feature", "geometry": {"type": "Point", "coordinates": [-75.88764, -12.38966]}, "properties": {"nombre": "Achin"}}, {"type": "Feature", "geometry": {"type": "Point", "coordinates": [-70.20778, -15.41481]}, "properties": {"nombre": "Cochaquinray"}}, {"type": "Feature", "geometry": {"type": "Point", "coordinates": [-71.11575, -14.44068]}, "properties": {"nombre": "Occobamba"}}, {"type": "Feature", "geometry": {"type": "Point", "coordinates": [-76.80942, -9.43221]}, "properties": {"nombre": "San Juan de Viscas"}}, {"type": "Feature", "geometry": {"type": "Point", "coordinates": [-77.29577, -8.70189]}, "properties": {"nombre": "San Jose"}}, {"type": "Feature", "geometry": {"type": "Point", "coordinates": [-72.30373, -13.4669]}, "properties": {"nombre": "Circa Kcacya"}}, {"type": "Feature", "geometry": {"type": "Point", "coordinates": [-72.17016, -13.45303]}, "properties": {"nombre": "Mosocllacta Ayllu Sanco"}}, {"type": "Feature", "geometry": {"type": "Point", "coordinates": [-72.22362, -13.40685]}, "properties": {"nombre": "Urinsaya Collana"}}, {"type": "Feature", "geometry": {"type": "Point", "coordinates": [-77.82549, -8.9051]}, "properties": {"nombre": "Alpamayo de Colcas"}}, {"type": "Feature", "geometry": {"type": "Point", "coordinates": [-76.31402, -11.99287]}, "properties": {"nombre": "Concha"}}, {"type": "Feature", "geometry": {"type": "Point", "coordinates": [-76.90133, -9.88993]}, "properties": {"nombre": "Santa Rosa de Yaruwilca"}}, {"type": "Feature", "geometry": {"type": "Point", "coordinates": [-77.26355, -8.26166]}, "properties": {"nombre": "Señor de los Milagros"}}, {"type": "Feature", "geometry": {"type": "Point", "coordinates": [-77.03616, -10.87901]}, "properties": {"nombre": "Conchao"}}, {"type": "Feature", "geometry": {"type": "Point", "coordinates": [-76.4784, -10.19594]}, "properties": {"nombre": "San Antonio de Chucchuc"}}, {"type": "Feature", "geometry": {"type": "Point", "coordinates": [-69.66786, -16.18422]}, "properties": {"nombre": "Lacaya"}}, {"type": "Feature", "geometry": {"type": "Point", "coordinates": [-71.55742, -13.98367]}, "properties": {"nombre": "Santa Rosa de Ihuina\r\n"}}, {"type": "Feature", "geometry": {"type": "Point", "coordinates": [-72.16161, -13.4311]}, "properties": {"nombre": "Eqquecco Chacan"}}, {"type": "Feature", "geometry": {"type": "Point", "coordinates": [-72.12303, -13.38881]}, "properties": {"nombre": "Ccollana - Cheqquerec"}}, {"type": "Feature", "geometry": {"type": "Point", "coordinates": [-73.71476, -13.42544]}, "properties": {"nombre": "Jose Maria Arguedas"}}, {"type": "Feature", "geometry": {"type": "Point", "coordinates": [-75.40506, -12.04954]}, "properties": {"nombre": "Cochangara"}}, {"type": "Feature", "geometry": {"type": "Point", "coordinates": [-71.04561, -16.37084]}, "properties": {"nombre": "Santa Lucia de Salinas de Ubinas"}}, {"type": "Feature", "geometry": {"type": "Point", "coordinates": [-70.02969, -16.14229]}, "properties": {"nombre": "Ñuñomarca"}}, {"type": "Feature", "geometry": {"type": "Point", "coordinates": [-71.94038, -13.89241]}, "properties": {"nombre": "Ccoyabamba"}}, {"type": "Feature", "geometry": {"type": "Point", "coordinates": [-71.61944, -14.75224]}, "properties": {"nombre": "Urinsaya"}}, {"type": "Feature", "geometry": {"type": "Point", "coordinates": [-69.99703, -14.4822]}, "properties": {"nombre": "Carputa Collana"}}, {"type": "Feature", "geometry": {"type": "Point", "coordinates": [-71.55921, -14.02184]}, "properties": {"nombre": "San Jose de Conchacalla"}}, {"type": "Feature", "geometry": {"type": "Point", "coordinates": [-78.65211, -7.2463]}, "properties": {"nombre": "Santa Maria de Magdalena"}}, {"type": "Feature", "geometry": {"type": "Point", "coordinates": [-69.33401, -16.38123]}, "properties": {"nombre": "Collini"}}, {"type": "Feature", "geometry": {"type": "Point", "coordinates": [-75.3445, -13.70395]}, "properties": {"nombre": "Ayavi"}}, {"type": "Feature", "geometry": {"type": "Point", "coordinates": [-71.93062, -15.67967]}, "properties": {"nombre": "Cabanaconde"}}, {"type": "Feature", "geometry": {"type": "Point", "coordinates": [-71.97198, -13.72847]}, "properties": {"nombre": "Toctohuaylla"}}, {"type": "Feature", "geometry": {"type": "Point", "coordinates": [-69.07162, -16.53168]}, "properties": {"nombre": "Cumi"}}, {"type": "Feature", "geometry": {"type": "Point", "coordinates": [-77.06571, -10.16778]}, "properties": {"nombre": "Quero"}}, {"type": "Feature", "geometry": {"type": "Point", "coordinates": [-75.97017, -12.56961]}, "properties": {"nombre": "Auco"}}, {"type": "Feature", "geometry": {"type": "Point", "coordinates": [-74.17197, -12.89184]}, "properties": {"nombre": "Sulluhuaylla"}}, {"type": "Feature", "geometry": {"type": "Point", "coordinates": [-74.35059, -12.75266]}, "properties": {"nombre": "Churcampa Pichcay"}}, {"type": "Feature", "geometry": {"type": "Point", "coordinates": [-75.5623, -11.82133]}, "properties": {"nombre": "Pocutanja"}}, {"type": "Feature", "geometry": {"type": "Point", "coordinates": [-71.85073, -13.3879]}, "properties": {"nombre": "Viacha"}}, {"type": "Feature", "geometry": {"type": "Point", "coordinates": [-71.34741, -14.15702]}, "properties": {"nombre": "Ccocha Ccosccoparte"}}, {"type": "Feature", "geometry": {"type": "Point", "coordinates": [-76.03275, -12.50893]}, "properties": {"nombre": "Aucampi"}}, {"type": "Feature", "geometry": {"type": "Point", "coordinates": [-75.10432, -12.14941]}, "properties": {"nombre": "Raquina"}}, {"type": "Feature", "geometry": {"type": "Point", "coordinates": [-76.53321, -11.23732]}, "properties": {"nombre": "Baños"}}, {"type": "Feature", "geometry": {"type": "Point", "coordinates": [-71.88229, -14.19956]}, "properties": {"nombre": "Hacca"}}, {"type": "Feature", "geometry": {"type": "Point", "coordinates": [-75.37404, -12.66547]}, "properties": {"nombre": "San José de Acobambilla"}}, {"type": "Feature", "geometry": {"type": "Point", "coordinates": [-76.33783, -10.09498]}, "properties": {"nombre": "Cesar Vallejo de Rayancatac"}}, {"type": "Feature", "geometry": {"type": "Point", "coordinates": [-75.84925, -12.86714]}, "properties": {"nombre": "Apuri"}}, {"type": "Feature", "geometry": {"type": "Point", "coordinates": [-75.7716, -12.52929]}, "properties": {"nombre": "Aquicha"}}, {"type": "Feature", "geometry": {"type": "Point", "coordinates": [-76.27764, -10.19752]}, "properties": {"nombre": "San Pablo de Acochincha"}}, {"type": "Feature", "geometry": {"type": "Point", "coordinates": [-74.57496, -12.53231]}, "properties": {"nombre": "Huanchos"}}, {"type": "Feature", "geometry": {"type": "Point", "coordinates": [-74.22779, -13.30318]}, "properties": {"nombre": "San Juan de Cochabamba II Alta"}}, {"type": "Feature", "geometry": {"type": "Point", "coordinates": [-72.90686, -13.78194]}, "properties": {"nombre": "Seccebamba"}}, {"type": "Feature", "geometry": {"type": "Point", "coordinates": [-77.26772, -10.62755]}, "properties": {"nombre": "Cahua"}}, {"type": "Feature", "geometry": {"type": "Point", "coordinates": [-74.52143, -12.59925]}, "properties": {"nombre": "Santa Rosa de Huachuapampa"}}, {"type": "Feature", "geometry": {"type": "Point", "coordinates": [-71.66617, -13.66685]}, "properties": {"nombre": "Secsencalla"}}, {"type": "Feature", "geometry": {"type": "Point", "coordinates": [-74.68889, -12.15202]}, "properties": {"nombre": "Pueblo Libre"}}, {"type": "Feature", "geometry": {"type": "Point", "coordinates": [-71.31902, -14.54862]}, "properties": {"nombre": "Cebaduyo Ccollana"}}, {"type": "Feature", "geometry": {"type": "Point", "coordinates": [-74.30008, -13.2333]}, "properties": {"nombre": "Maucallacta"}}, {"type": "Feature", "geometry": {"type": "Point", "coordinates": [-75.92243, -12.33446]}, "properties": {"nombre": "Carania"}}, {"type": "Feature", "geometry": {"type": "Point", "coordinates": [-75.93833, -12.60719]}, "properties": {"nombre": "Casinta"}}, {"type": "Feature", "geometry": {"type": "Point", "coordinates": [-71.45866, -14.78799]}, "properties": {"nombre": "Anansaya Ccollana"}}, {"type": "Feature", "geometry": {"type": "Point", "coordinates": [-71.14853, -14.43154]}, "properties": {"nombre": "Llallahui"}}, {"type": "Feature", "geometry": {"type": "Point", "coordinates": [-74.82581, -12.61582]}, "properties": {"nombre": "Nuevo Progreso de Huantaylla"}}, {"type": "Feature", "geometry": {"type": "Point", "coordinates": [-71.17361, -14.03735]}, "properties": {"nombre": "Llutuyo"}}, {"type": "Feature", "geometry": {"type": "Point", "coordinates": [-79.63621, -4.5803]}, "properties": {"nombre": "Aragoto"}}, {"type": "Feature", "geometry": {"type": "Point", "coordinates": [-70.19063, -13.80861]}, "properties": {"nombre": "Qquete"}}, {"type": "Feature", "geometry": {"type": "Point", "coordinates": [-72.01783, -13.49714]}, "properties": {"nombre": "Chinchaysuyo"}}, {"type": "Feature", "geometry": {"type": "Point", "coordinates": [-77.81621, -8.90353]}, "properties": {"nombre": "Caranca"}}, {"type": "Feature", "geometry": {"type": "Point", "coordinates": [-80.01622, -4.88928]}, "properties": {"nombre": "Castro Pozo de Geraldo"}}, {"type": "Feature", "geometry": {"type": "Point", "coordinates": [-75.25205, -12.05122]}, "properties": {"nombre": "Pilcomayo"}}, {"type": "Feature", "geometry": {"type": "Point", "coordinates": [-71.34051, -13.94543]}, "properties": {"nombre": "Pampachiri"}}, {"type": "Feature", "geometry": {"type": "Point", "coordinates": [-77.40318, -8.92696]}, "properties": {"nombre": "Lucma Tayabamba"}}, {"type": "Feature", "geometry": {"type": "Point", "coordinates": [-72.35054, -14.15978]}, "properties": {"nombre": "Huanacopampa"}}, {"type": "Feature", "geometry": {"type": "Point", "coordinates": [-69.59116, -15.1794]}, "properties": {"nombre": "Quispilacaya"}}, {"type": "Feature", "geometry": {"type": "Point", "coordinates": [-70.99655, -13.90455]}, "properties": {"nombre": "Phinaya"}}, {"type": "Feature", "geometry": {"type": "Point", "coordinates": [-76.30656, -10.23311]}, "properties": {"nombre": "San Juan de Yanamachay"}}, {"type": "Feature", "geometry": {"type": "Point", "coordinates": [-71.2432, -14.50877]}, "properties": {"nombre": "Huarcachape"}}, {"type": "Feature", "geometry": {"type": "Point", "coordinates": [-73.47387, -13.69557]}, "properties": {"nombre": "Ccaccacha"}}, {"type": "Feature", "geometry": {"type": "Point", "coordinates": [-71.54619, -13.68376]}, "properties": {"nombre": "Sonccomarca"}}, {"type": "Feature", "geometry": {"type": "Point", "coordinates": [-71.91447, -13.65438]}, "properties": {"nombre": "Incacona\r\n"}}, {"type": "Feature", "geometry": {"type": "Point", "coordinates": [-76.7239, -10.01031]}, "properties": {"nombre": "Brillante del Nupe"}}, {"type": "Feature", "geometry": {"type": "Point", "coordinates": [-72.25988, -13.46629]}, "properties": {"nombre": "San Nicolas de Bari"}}, {"type": "Feature", "geometry": {"type": "Point", "coordinates": [-76.96936, -10.0135]}, "properties": {"nombre": "Chiuruco"}}, {"type": "Feature", "geometry": {"type": "Point", "coordinates": [-71.83769, -14.01022]}, "properties": {"nombre": "Misanapata"}}, {"type": "Feature", "geometry": {"type": "Point", "coordinates": [-71.8595, -13.74943]}, "properties": {"nombre": "Incacona Ttantar Ccosco\r\n"}}, {"type": "Feature", "geometry": {"type": "Point", "coordinates": [-69.28002, -16.38274]}, "properties": {"nombre": "Jiscuani"}}, {"type": "Feature", "geometry": {"type": "Point", "coordinates": [-72.11363, -13.28822]}, "properties": {"nombre": "Yanacona"}}, {"type": "Feature", "geometry": {"type": "Point", "coordinates": [-71.42514, -14.64769]}, "properties": {"nombre": "Sillota"}}, {"type": "Feature", "geometry": {"type": "Point", "coordinates": [-78.57884, -5.42111]}, "properties": {"nombre": "Santa Rosa"}}, {"type": "Feature", "geometry": {"type": "Point", "coordinates": [-76.03436, -10.59869]}, "properties": {"nombre": "Ticlacayan"}}, {"type": "Feature", "geometry": {"type": "Point", "coordinates": [-73.94488, -12.65986]}, "properties": {"nombre": "Irquis"}}, {"type": "Feature", "geometry": {"type": "Point", "coordinates": [-78.88404, -5.29663]}, "properties": {"nombre": "San Juan de Chirinos"}}, {"type": "Feature", "geometry": {"type": "Point", "coordinates": [-71.01676, -14.82797]}, "properties": {"nombre": "Pallpata"}}, {"type": "Feature", "geometry": {"type": "Point", "coordinates": [-72.06625, -13.44464]}, "properties": {"nombre": "Ccorimarca"}}, {"type": "Feature", "geometry": {"type": "Point", "coordinates": [-69.84875, -16.38064]}, "properties": {"nombre": "Collpa"}}, {"type": "Feature", "geometry": {"type": "Point", "coordinates": [-74.41161, -12.72286]}, "properties": {"nombre": "Cconocc"}}, {"type": "Feature", "geometry": {"type": "Point", "coordinates": [-71.34744, -13.32131]}, "properties": {"nombre": "Marcachea"}}, {"type": "Feature", "geometry": {"type": "Point", "coordinates": [-70.20373, -15.47267]}, "properties": {"nombre": "Huichay Jaran"}}, {"type": "Feature", "geometry": {"type": "Point", "coordinates": [-75.65453, -14.1479]}, "properties": {"nombre": "Yauca de Cocharcas"}}, {"type": "Feature", "geometry": {"type": "Point", "coordinates": [-69.09105, -16.29504]}, "properties": {"nombre": "Chinumani Copapujo"}}, {"type": "Feature", "geometry": {"type": "Point", "coordinates": [-74.46467, -12.78983]}, "properties": {"nombre": "San Martin de Marcayllo"}}, {"type": "Feature", "geometry": {"type": "Point", "coordinates": [-73.13224, -13.64947]}, "properties": {"nombre": "Santa Rosa de Sotccomayo"}}, {"type": "Feature", "geometry": {"type": "Point", "coordinates": [-71.92651, -13.27823]}, "properties": {"nombre": "Accha - Baja"}}, {"type": "Feature", "geometry": {"type": "Point", "coordinates": [-69.0517, -16.22437]}, "properties": {"nombre": "San Juan de Totora"}}, {"type": "Feature", "geometry": {"type": "Point", "coordinates": [-70.04937, -13.72851]}, "properties": {"nombre": "Upina"}}, {"type": "Feature", "geometry": {"type": "Point", "coordinates": [-71.96171, -13.60147]}, "properties": {"nombre": "Occopata"}}, {"type": "Feature", "geometry": {"type": "Point", "coordinates": [-70.04149, -17.43408]}, "properties": {"nombre": "Ticaco"}}, {"type": "Feature", "geometry": {"type": "Point", "coordinates": [-74.45617, -13.3285]}, "properties": {"nombre": "Anchac Huasi"}}, {"type": "Feature", "geometry": {"type": "Point", "coordinates": [-77.21005, -9.11287]}, "properties": {"nombre": "Union Caninaco"}}, {"type": "Feature", "geometry": {"type": "Point", "coordinates": [-71.85194, -13.73299]}, "properties": {"nombre": "Anansaya Nihuacalla Masca"}}, {"type": "Feature", "geometry": {"type": "Point", "coordinates": [-74.5822, -12.23293]}, "properties": {"nombre": "Tablahuasi"}}, {"type": "Feature", "geometry": {"type": "Point", "coordinates": [-69.60078, -15.10045]}, "properties": {"nombre": "Calahuyo"}}, {"type": "Feature", "geometry": {"type": "Point", "coordinates": [-71.42069, -14.12603]}, "properties": {"nombre": "Uchu"}}, {"type": "Feature", "geometry": {"type": "Point", "coordinates": [-74.81476, -12.72014]}, "properties": {"nombre": "Troya"}}, {"type": "Feature", "geometry": {"type": "Point", "coordinates": [-70.15409, -17.35423]}, "properties": {"nombre": "Susapaya"}}, {"type": "Feature", "geometry": {"type": "Point", "coordinates": [-70.60535, -14.04008]}, "properties": {"nombre": "Huaylluma Ninahuisa"}}, {"type": "Feature", "geometry": {"type": "Point", "coordinates": [-71.71102, -14.86565]}, "properties": {"nombre": "Tahuapalcca"}}, {"type": "Feature", "geometry": {"type": "Point", "coordinates": [-77.49398, -8.9913]}, "properties": {"nombre": "San Pedro de Chinguil"}}, {"type": "Feature", "geometry": {"type": "Point", "coordinates": [-75.45961, -12.82011]}, "properties": {"nombre": "Tipicocha"}}, {"type": "Feature", "geometry": {"type": "Point", "coordinates": [-71.61195, -14.5993]}, "properties": {"nombre": "Oqquebamba"}}, {"type": "Feature", "geometry": {"type": "Point", "coordinates": [-72.06638, -13.42773]}, "properties": {"nombre": "Ccorimarca"}}, {"type": "Feature", "geometry": {"type": "Point", "coordinates": [-71.72785, -13.70753]}, "properties": {"nombre": "Mancco"}}, {"type": "Feature", "geometry": {"type": "Point", "coordinates": [-77.9492, -9.12141]}, "properties": {"nombre": "Chaclancayo"}}, {"type": "Feature", "geometry": {"type": "Point", "coordinates": [-76.6424, -11.81228]}, "properties": {"nombre": "Chaclla"}}, {"type": "Feature", "geometry": {"type": "Point", "coordinates": [-77.40652, -9.71149]}, "properties": {"nombre": "Los Andes de Recuay"}}, {"type": "Feature", "geometry": {"type": "Point", "coordinates": [-74.15046, -12.72153]}, "properties": {"nombre": "Cercan"}}, {"type": "Feature", "geometry": {"type": "Point", "coordinates": [-71.13628, -14.152]}, "properties": {"nombre": "Lahua Lahua"}}, {"type": "Feature", "geometry": {"type": "Point", "coordinates": [-70.67683, -13.21669]}, "properties": {"nombre": "Huacyumbre"}}, {"type": "Feature", "geometry": {"type": "Point", "coordinates": [-77.651, -9.1691]}, "properties": {"nombre": "Tumpa"}}, {"type": "Feature", "geometry": {"type": "Point", "coordinates": [-76.17857, -10.62003]}, "properties": {"nombre": "La Candelaria"}}, {"type": "Feature", "geometry": {"type": "Point", "coordinates": [-69.81593, -15.18137]}, "properties": {"nombre": "Antacahua"}}, {"type": "Feature", "geometry": {"type": "Point", "coordinates": [-71.6938, -13.49633]}, "properties": {"nombre": "Huayllapata"}}, {"type": "Feature", "geometry": {"type": "Point", "coordinates": [-75.07364, -11.66649]}, "properties": {"nombre": "Chupa"}}, {"type": "Feature", "geometry": {"type": "Point", "coordinates": [-71.93517, -13.56407]}, "properties": {"nombre": "Huillcarpay"}}, {"type": "Feature", "geometry": {"type": "Point", "coordinates": [-76.65932, -11.29503]}, "properties": {"nombre": "Chisque"}}, {"type": "Feature", "geometry": {"type": "Point", "coordinates": [-79.78546, -4.63394]}, "properties": {"nombre": "Chonta"}}, {"type": "Feature", "geometry": {"type": "Point", "coordinates": [-69.84568, -16.05981]}, "properties": {"nombre": "San Carlos"}}, {"type": "Feature", "geometry": {"type": "Point", "coordinates": [-77.14392, -10.36735]}, "properties": {"nombre": "Nanis"}}, {"type": "Feature", "geometry": {"type": "Point", "coordinates": [-74.49679, -13.22698]}, "properties": {"nombre": "Paccha"}}, {"type": "Feature", "geometry": {"type": "Point", "coordinates": [-77.39757, -9.67764]}, "properties": {"nombre": "Cordillera Blanca"}}, {"type": "Feature", "geometry": {"type": "Point", "coordinates": [-77.32076, -9.19002]}, "properties": {"nombre": "San Antonio de Macuash"}}, {"type": "Feature", "geometry": {"type": "Point", "coordinates": [-76.68367, -9.57656]}, "properties": {"nombre": "Quivilla"}}, {"type": "Feature", "geometry": {"type": "Point", "coordinates": [-76.18989, -10.62068]}, "properties": {"nombre": "San Miguel"}}, {"type": "Feature", "geometry": {"type": "Point", "coordinates": [-73.98634, -13.28366]}, "properties": {"nombre": "San Isidro de Soytocco"}}, {"type": "Feature", "geometry": {"type": "Point", "coordinates": [-76.46675, -12.68422]}, "properties": {"nombre": "Coayllo"}}, {"type": "Feature", "geometry": {"type": "Point", "coordinates": [-71.9585, -13.71456]}, "properties": {"nombre": "Ayllo Pachicte o Mollebamba"}}, {"type": "Feature", "geometry": {"type": "Point", "coordinates": [-77.60485, -9.58166]}, "properties": {"nombre": "24 de Junio de Piruruyoc - Canshan"}}, {"type": "Feature", "geometry": {"type": "Point", "coordinates": [-80.0982, -4.8641]}, "properties": {"nombre": "Tunal Zapallal"}}, {"type": "Feature", "geometry": {"type": "Point", "coordinates": [-78.78566, -7.07807]}, "properties": {"nombre": "Unanca"}}, {"type": "Feature", "geometry": {"type": "Point", "coordinates": [-76.81353, -12.08532]}, "properties": {"nombre": "Collanac"}}, {"type": "Feature", "geometry": {"type": "Point", "coordinates": [-76.18165, -10.42666]}, "properties": {"nombre": "Huariaca"}}, {"type": "Feature", "geometry": {"type": "Point", "coordinates": [-72.14927, -14.04579]}, "properties": {"nombre": "Quehuincha"}}, {"type": "Feature", "geometry": {"type": "Point", "coordinates": [-72.2371, -13.45162]}, "properties": {"nombre": "San Nicolas de Bari"}}, {"type": "Feature", "geometry": {"type": "Point", "coordinates": [-72.91333, -15.13175]}, "properties": {"nombre": "Ccayahua"}}, {"type": "Feature", "geometry": {"type": "Point", "coordinates": [-73.21243, -4.31017]}, "properties": {"nombre": "El Chino"}}, {"type": "Feature", "geometry": {"type": "Point", "coordinates": [-69.74769, -15.08632]}, "properties": {"nombre": "Chullocota Chucallane"}}, {"type": "Feature", "geometry": {"type": "Point", "coordinates": [-77.28419, -8.73177]}, "properties": {"nombre": "Santa Rosa"}}, {"type": "Feature", "geometry": {"type": "Point", "coordinates": [-71.04183, -13.57614]}, "properties": {"nombre": "Puyca"}}, {"type": "Feature", "geometry": {"type": "Point", "coordinates": [-75.67535, -12.91993]}, "properties": {"nombre": "Ortigal"}}, {"type": "Feature", "geometry": {"type": "Point", "coordinates": [-74.75992, -12.50534]}, "properties": {"nombre": "Huari"}}, {"type": "Feature", "geometry": {"type": "Point", "coordinates": [-76.58748, -11.42869]}, "properties": {"nombre": "Obrajillo"}}, {"type": "Feature", "geometry": {"type": "Point", "coordinates": [-71.34745, -14.06787]}, "properties": {"nombre": "Sallocca"}}, {"type": "Feature", "geometry": {"type": "Point", "coordinates": [-69.70606, -14.9892]}, "properties": {"nombre": "Santa Cruz de Chillimuri"}}, {"type": "Feature", "geometry": {"type": "Point", "coordinates": [-71.82214, -13.28461]}, "properties": {"nombre": "Poques"}}, {"type": "Feature", "geometry": {"type": "Point", "coordinates": [-78.0596, -9.03313]}, "properties": {"nombre": "Cosma"}}, {"type": "Feature", "geometry": {"type": "Point", "coordinates": [-71.84071, -13.7415]}, "properties": {"nombre": "Cucuchiray"}}, {"type": "Feature", "geometry": {"type": "Point", "coordinates": [-76.76826, -11.21006]}, "properties": {"nombre": "Coto"}}, {"type": "Feature", "geometry": {"type": "Point", "coordinates": [-73.09681, -13.83141]}, "properties": {"nombre": "Pichirhua"}}, {"type": "Feature", "geometry": {"type": "Point", "coordinates": [-74.94593, -12.66195]}, "properties": {"nombre": "Chillhuapampa"}}, {"type": "Feature", "geometry": {"type": "Point", "coordinates": [-80.04307, -4.79808]}, "properties": {"nombre": "Tupac Amaru de Llicsa Grande Cerro Lima y Zapotal"}}, {"type": "Feature", "geometry": {"type": "Point", "coordinates": [-73.55465, -14.63501]}, "properties": {"nombre": "Huray Huma"}}, {"type": "Feature", "geometry": {"type": "Point", "coordinates": [-70.6749, -14.99247]}, "properties": {"nombre": "Pacobamba Alto"}}, {"type": "Feature", "geometry": {"type": "Point", "coordinates": [-76.09213, -10.12369]}, "properties": {"nombre": "Lomas Gordas"}}, {"type": "Feature", "geometry": {"type": "Point", "coordinates": [-73.15508, -13.86741]}, "properties": {"nombre": "San Mateo Taqquebamba"}}, {"type": "Feature", "geometry": {"type": "Point", "coordinates": [-71.64414, -14.10244]}, "properties": {"nombre": "San Juan"}}, {"type": "Feature", "geometry": {"type": "Point", "coordinates": [-74.18477, -15.22162]}, "properties": {"nombre": "Sancos"}}, {"type": "Feature", "geometry": {"type": "Point", "coordinates": [-73.73647, -15.15705]}, "properties": {"nombre": "Carhuanilla"}}, {"type": "Feature", "geometry": {"type": "Point", "coordinates": [-69.78873, -15.14258]}, "properties": {"nombre": "Chuquiaguillo"}}, {"type": "Feature", "geometry": {"type": "Point", "coordinates": [-71.67878, -13.49849]}, "properties": {"nombre": "Tambopata\r\n"}}, {"type": "Feature", "geometry": {"type": "Point", "coordinates": [-76.18174, -9.79377]}, "properties": {"nombre": "Cascay"}}, {"type": "Feature", "geometry": {"type": "Point", "coordinates": [-70.31294, -14.65107]}, "properties": {"nombre": "Sillota"}}, {"type": "Feature", "geometry": {"type": "Point", "coordinates": [-71.31031, -14.34251]}, "properties": {"nombre": "Urinsaya Ñahui Chaccopata"}}, {"type": "Feature", "geometry": {"type": "Point", "coordinates": [-69.40589, -15.14379]}, "properties": {"nombre": "Halla Alto Grande"}}, {"type": "Feature", "geometry": {"type": "Point", "coordinates": [-77.31089, -9.10852]}, "properties": {"nombre": "El Ingenio"}}, {"type": "Feature", "geometry": {"type": "Point", "coordinates": [-73.41838, -13.7918]}, "properties": {"nombre": "San Juan de Occollo"}}, {"type": "Feature", "geometry": {"type": "Point", "coordinates": [-73.72728, -15.00408]}, "properties": {"nombre": "Muchapampa"}}, {"type": "Feature", "geometry": {"type": "Point", "coordinates": [-71.86408, -14.97152]}, "properties": {"nombre": "Cucho Capilla"}}, {"type": "Feature", "geometry": {"type": "Point", "coordinates": [-77.90447, -7.57383]}, "properties": {"nombre": "Moraspampa Yanas"}}, {"type": "Feature", "geometry": {"type": "Point", "coordinates": [-71.46005, -13.61257]}, "properties": {"nombre": "Llachic"}}, {"type": "Feature", "geometry": {"type": "Point", "coordinates": [-72.94101, -4.12858]}, "properties": {"nombre": "Constancia"}}, {"type": "Feature", "geometry": {"type": "Point", "coordinates": [-71.89696, -14.55248]}, "properties": {"nombre": "Ccollana"}}, {"type": "Feature", "geometry": {"type": "Point", "coordinates": [-73.77062, -15.15811]}, "properties": {"nombre": "Acos"}}, {"type": "Feature", "geometry": {"type": "Point", "coordinates": [-69.79126, -15.12214]}, "properties": {"nombre": "Tiquirini Toteria"}}, {"type": "Feature", "geometry": {"type": "Point", "coordinates": [-77.56823, -8.62046]}, "properties": {"nombre": "Sicsibamba"}}, {"type": "Feature", "geometry": {"type": "Point", "coordinates": [-71.3654, -14.57935]}, "properties": {"nombre": "Cullcutaya"}}, {"type": "Feature", "geometry": {"type": "Point", "coordinates": [-76.99225, -9.27448]}, "properties": {"nombre": "Yunguilla"}}, {"type": "Feature", "geometry": {"type": "Point", "coordinates": [-72.26293, -13.38097]}, "properties": {"nombre": "Chaquepay"}}, {"type": "Feature", "geometry": {"type": "Point", "coordinates": [-71.36807, -13.95925]}, "properties": {"nombre": "Pampachiri"}}, {"type": "Feature", "geometry": {"type": "Point", "coordinates": [-74.18111, -12.689]}, "properties": {"nombre": "Choccehuiscca o Mosoccpampa"}}, {"type": "Feature", "geometry": {"type": "Point", "coordinates": [-71.81685, -13.9971]}, "properties": {"nombre": "Sihuina"}}, {"type": "Feature", "geometry": {"type": "Point", "coordinates": [-72.82202, -4.23074]}, "properties": {"nombre": "Miraflores"}}, {"type": "Feature", "geometry": {"type": "Point", "coordinates": [-78.42662, -7.83212]}, "properties": {"nombre": "Mashual y Cruz de Pecop"}}, {"type": "Feature", "geometry": {"type": "Point", "coordinates": [-71.9125, -13.35519]}, "properties": {"nombre": "Huanca Ayllo"}}, {"type": "Feature", "geometry": {"type": "Point", "coordinates": [-71.74505, -13.79556]}, "properties": {"nombre": "Parara"}}, {"type": "Feature", "geometry": {"type": "Point", "coordinates": [-69.72294, -14.93144]}, "properties": {"nombre": "Tirapunco"}}, {"type": "Feature", "geometry": {"type": "Point", "coordinates": [-76.15536, -12.18214]}, "properties": {"nombre": "Huancaya"}}, {"type": "Feature", "geometry": {"type": "Point", "coordinates": [-72.32381, -13.42408]}, "properties": {"nombre": "San Martin de Porres"}}, {"type": "Feature", "geometry": {"type": "Point", "coordinates": [-74.67462, -12.6101]}, "properties": {"nombre": "San Martin de Mayunmarca"}}, {"type": "Feature", "geometry": {"type": "Point", "coordinates": [-72.25207, -13.49409]}, "properties": {"nombre": "Curamba - Tumibamba"}}, {"type": "Feature", "geometry": {"type": "Point", "coordinates": [-70.11354, -15.73163]}, "properties": {"nombre": "San Martin de Porres de Yanico"}}, {"type": "Feature", "geometry": {"type": "Point", "coordinates": [-69.70004, -15.05118]}, "properties": {"nombre": "Pajchacuyo"}}, {"type": "Feature", "geometry": {"type": "Point", "coordinates": [-72.34768, -13.79823]}, "properties": {"nombre": "Huarccoy"}}, {"type": "Feature", "geometry": {"type": "Point", "coordinates": [-72.84664, -15.66457]}, "properties": {"nombre": "Uchumire"}}, {"type": "Feature", "geometry": {"type": "Point", "coordinates": [-77.03182, -11.25618]}, "properties": {"nombre": "Ihuari"}}, {"type": "Feature", "geometry": {"type": "Point", "coordinates": [-71.15081, -14.3361]}, "properties": {"nombre": "Ccaicco"}}, {"type": "Feature", "geometry": {"type": "Point", "coordinates": [-70.8638, -14.66867]}, "properties": {"nombre": "Santa Cruz"}}, {"type": "Feature", "geometry": {"type": "Point", "coordinates": [-70.80434, -16.20497]}, "properties": {"nombre": "Yaribaya"}}, {"type": "Feature", "geometry": {"type": "Point", "coordinates": [-74.19349, -13.12957]}, "properties": {"nombre": "Mariscal Andres Avelino Caceres"}}, {"type": "Feature", "geometry": {"type": "Point", "coordinates": [-74.70999, -11.86564]}, "properties": {"nombre": "Astilleria"}}, {"type": "Feature", "geometry": {"type": "Point", "coordinates": [-77.47807, -10.1214]}, "properties": {"nombre": "San Lorenzo de Marca"}}, {"type": "Feature", "geometry": {"type": "Point", "coordinates": [-73.15773, -3.73186]}, "properties": {"nombre": "Juan Velasco Alvarado"}}, {"type": "Feature", "geometry": {"type": "Point", "coordinates": [-72.07003, -13.76644]}, "properties": {"nombre": "Roccoto Cedroni"}}, {"type": "Feature", "geometry": {"type": "Point", "coordinates": [-71.49711, -13.8857]}, "properties": {"nombre": "Tintinco"}}, {"type": "Feature", "geometry": {"type": "Point", "coordinates": [-71.56979, -13.43913]}, "properties": {"nombre": "Mikaypata"}}, {"type": "Feature", "geometry": {"type": "Point", "coordinates": [-74.05343, -15.24692]}, "properties": {"nombre": "Huillcallama"}}, {"type": "Feature", "geometry": {"type": "Point", "coordinates": [-72.67762, -3.4359]}, "properties": {"nombre": "Los Invensibles de las Amazonas"}}, {"type": "Feature", "geometry": {"type": "Point", "coordinates": [-71.82465, -13.40836]}, "properties": {"nombre": "Cuyo Chico"}}, {"type": "Feature", "geometry": {"type": "Point", "coordinates": [-75.29801, -13.54162]}, "properties": {"nombre": "Huayacundo Arma"}}, {"type": "Feature", "geometry": {"type": "Point", "coordinates": [-76.95266, -11.1395]}, "properties": {"nombre": "Huaicho"}}, {"type": "Feature", "geometry": {"type": "Point", "coordinates": [-71.61178, -13.94171]}, "properties": {"nombre": "Sangarara"}}, {"type": "Feature", "geometry": {"type": "Point", "coordinates": [-71.57995, -13.76321]}, "properties": {"nombre": "Huaraypata"}}, {"type": "Feature", "geometry": {"type": "Point", "coordinates": [-73.50271, -15.43362]}, "properties": {"nombre": "Ayroca"}}, {"type": "Feature", "geometry": {"type": "Point", "coordinates": [-75.67239, -11.32785]}, "properties": {"nombre": "San Antonio de Ataquero"}}, {"type": "Feature", "geometry": {"type": "Point", "coordinates": [-72.09869, -13.49519]}, "properties": {"nombre": "Juan Velasco Alvarado"}}, {"type": "Feature", "geometry": {"type": "Point", "coordinates": [-76.22624, -10.10953]}, "properties": {"nombre": "Ayancocha"}}, {"type": "Feature", "geometry": {"type": "Point", "coordinates": [-74.53728, -12.66157]}, "properties": {"nombre": "Lambrasniyocc"}}, {"type": "Feature", "geometry": {"type": "Point", "coordinates": [-71.51853, -13.64604]}, "properties": {"nombre": "Pampa Camara"}}, {"type": "Feature", "geometry": {"type": "Point", "coordinates": [-70.48609, -16.12557]}, "properties": {"nombre": "San Jose de Humalso"}}, {"type": "Feature", "geometry": {"type": "Point", "coordinates": [-71.63804, -14.15417]}, "properties": {"nombre": "Aucho"}}, {"type": "Feature", "geometry": {"type": "Point", "coordinates": [-71.30906, -14.06752]}, "properties": {"nombre": "Tiruma"}}, {"type": "Feature", "geometry": {"type": "Point", "coordinates": [-69.4886, -14.91619]}, "properties": {"nombre": "Japo"}}, {"type": "Feature", "geometry": {"type": "Point", "coordinates": [-71.23456, -14.34861]}, "properties": {"nombre": "Sullca"}}, {"type": "Feature", "geometry": {"type": "Point", "coordinates": [-72.326, -13.46376]}, "properties": {"nombre": "Ccolccabamba"}}, {"type": "Feature", "geometry": {"type": "Point", "coordinates": [-74.06284, -13.127]}, "properties": {"nombre": "Virgen del Carmen de Urpay"}}, {"type": "Feature", "geometry": {"type": "Point", "coordinates": [-70.36547, -14.82643]}, "properties": {"nombre": "Collana Santa Cruz"}}, {"type": "Feature", "geometry": {"type": "Point", "coordinates": [-72.08727, -13.76646]}, "properties": {"nombre": "Roccoto Cedroni"}}, {"type": "Feature", "geometry": {"type": "Point", "coordinates": [-72.99613, -13.88247]}, "properties": {"nombre": "Antabamba"}}, {"type": "Feature", "geometry": {"type": "Point", "coordinates": [-69.84998, -17.53622]}, "properties": {"nombre": "Talabaya"}}, {"type": "Feature", "geometry": {"type": "Point", "coordinates": [-77.23098, -8.98542]}, "properties": {"nombre": "Jose Carlos Mariategui"}}, {"type": "Feature", "geometry": {"type": "Point", "coordinates": [-72.39995, -13.98467]}, "properties": {"nombre": "Patarcancha"}}, {"type": "Feature", "geometry": {"type": "Point", "coordinates": [-77.19872, -10.31748]}, "properties": {"nombre": "Carhuajara"}}, {"type": "Feature", "geometry": {"type": "Point", "coordinates": [-69.72864, -15.17344]}, "properties": {"nombre": "Huilahuyo"}}, {"type": "Feature", "geometry": {"type": "Point", "coordinates": [-75.41948, -11.84811]}, "properties": {"nombre": "Pacamarca"}}, {"type": "Feature", "geometry": {"type": "Point", "coordinates": [-69.51134, -14.56889]}, "properties": {"nombre": "Cojene Rotojoni"}}, {"type": "Feature", "geometry": {"type": "Point", "coordinates": [-76.21424, -9.84104]}, "properties": {"nombre": "Pachabamba"}}, {"type": "Feature", "geometry": {"type": "Point", "coordinates": [-75.22932, -13.96074]}, "properties": {"nombre": "San Juan de Huirpacancha"}}, {"type": "Feature", "geometry": {"type": "Point", "coordinates": [-73.8783, -13.03648]}, "properties": {"nombre": "Virgen de Cocharcas de Cochas"}}, {"type": "Feature", "geometry": {"type": "Point", "coordinates": [-77.86375, -8.72569]}, "properties": {"nombre": "Kiman Ayllu"}}, {"type": "Feature", "geometry": {"type": "Point", "coordinates": [-78.80375, -6.36167]}, "properties": {"nombre": "Muque Saden Liclipampa"}}, {"type": "Feature", "geometry": {"type": "Point", "coordinates": [-77.815, -8.75078]}, "properties": {"nombre": "Quitaracza"}}, {"type": "Feature", "geometry": {"type": "Point", "coordinates": [-71.64543, -14.62084]}, "properties": {"nombre": "Oqquebamba"}}, {"type": "Feature", "geometry": {"type": "Point", "coordinates": [-71.53331, -14.21598]}, "properties": {"nombre": "Aucho"}}, {"type": "Feature", "geometry": {"type": "Point", "coordinates": [-69.03408, -16.25604]}, "properties": {"nombre": "Pajana San Agustin"}}, {"type": "Feature", "geometry": {"type": "Point", "coordinates": [-78.7703, -6.91143]}, "properties": {"nombre": "San Antonio de Ojos"}}, {"type": "Feature", "geometry": {"type": "Point", "coordinates": [-76.30422, -9.84651]}, "properties": {"nombre": "San Sebastian de Quera"}}, {"type": "Feature", "geometry": {"type": "Point", "coordinates": [-76.18945, -12.23519]}, "properties": {"nombre": "Láran de Huanchac"}}, {"type": "Feature", "geometry": {"type": "Point", "coordinates": [-71.92887, -13.30226]}, "properties": {"nombre": "Pampallacta Baja"}}, {"type": "Feature", "geometry": {"type": "Point", "coordinates": [-74.11176, -12.89603]}, "properties": {"nombre": "Ranra Llamahuillca"}}, {"type": "Feature", "geometry": {"type": "Point", "coordinates": [-77.69799, -7.15442]}, "properties": {"nombre": "Bolivar"}}, {"type": "Feature", "geometry": {"type": "Point", "coordinates": [-77.59766, -9.67403]}, "properties": {"nombre": "Santa Cruz de Rurek"}}, {"type": "Feature", "geometry": {"type": "Point", "coordinates": [-74.23317, -14.1773]}, "properties": {"nombre": "Yanama"}}, {"type": "Feature", "geometry": {"type": "Point", "coordinates": [-76.4588, -12.10937]}, "properties": {"nombre": "Langa"}}, {"type": "Feature", "geometry": {"type": "Point", "coordinates": [-72.20546, -13.40407]}, "properties": {"nombre": "Urinsaya Collana"}}, {"type": "Feature", "geometry": {"type": "Point", "coordinates": [-74.7657, -12.50165]}, "properties": {"nombre": "Los Libertadores"}}, {"type": "Feature", "geometry": {"type": "Point", "coordinates": [-72.10952, -13.74439]}, "properties": {"nombre": "Coror Paco"}}, {"type": "Feature", "geometry": {"type": "Point", "coordinates": [-74.85247, -12.0499]}, "properties": {"nombre": "San Cristobal de Picpis"}}, {"type": "Feature", "geometry": {"type": "Point", "coordinates": [-74.49056, -12.62035]}, "properties": {"nombre": "Nueva Esperanza de Chonta"}}, {"type": "Feature", "geometry": {"type": "Point", "coordinates": [-69.61394, -16.01753]}, "properties": {"nombre": "Janccocollo"}}, {"type": "Feature", "geometry": {"type": "Point", "coordinates": [-76.29231, -9.74512]}, "properties": {"nombre": "Icna"}}, {"type": "Feature", "geometry": {"type": "Point", "coordinates": [-71.06236, -15.03813]}, "properties": {"nombre": "Pirhuayani"}}, {"type": "Feature", "geometry": {"type": "Point", "coordinates": [-74.80398, -14.1825]}, "properties": {"nombre": "Llauta"}}, {"type": "Feature", "geometry": {"type": "Point", "coordinates": [-76.04097, -12.62243]}, "properties": {"nombre": "Allauca"}}, {"type": "Feature", "geometry": {"type": "Point", "coordinates": [-78.80089, -6.94698]}, "properties": {"nombre": "Rodeopampa"}}, {"type": "Feature", "geometry": {"type": "Point", "coordinates": [-70.62043, -16.34953]}, "properties": {"nombre": "Lloque"}}, {"type": "Feature", "geometry": {"type": "Point", "coordinates": [-71.80825, -13.36551]}, "properties": {"nombre": "Sacaca"}}, {"type": "Feature", "geometry": {"type": "Point", "coordinates": [-77.53342, -9.43099]}, "properties": {"nombre": "Pedro Cochachin de Chavin"}}, {"type": "Feature", "geometry": {"type": "Point", "coordinates": [-76.4352, -12.22026]}, "properties": {"nombre": "Matara"}}, {"type": "Feature", "geometry": {"type": "Point", "coordinates": [-80.07074, -4.91541]}, "properties": {"nombre": "Veinticuatro de Junio las Cuevas"}}, {"type": "Feature", "geometry": {"type": "Point", "coordinates": [-70.32768, -14.30156]}, "properties": {"nombre": "Quilca Viluyo"}}, {"type": "Feature", "geometry": {"type": "Point", "coordinates": [-74.21665, -12.59356]}, "properties": {"nombre": "Sayhua Llamanniyocc"}}, {"type": "Feature", "geometry": {"type": "Point", "coordinates": [-81.08141, -4.8966]}, "properties": {"nombre": "San Lucas de Colan"}}, {"type": "Feature", "geometry": {"type": "Point", "coordinates": [-74.3911, -15.79807]}, "properties": {"nombre": "Atiquipa Jaqui y Yauca"}}, {"type": "Feature", "geometry": {"type": "Point", "coordinates": [-72.72457, -13.90844]}, "properties": {"nombre": "Lambrama"}}, {"type": "Feature", "geometry": {"type": "Point", "coordinates": [-79.03303, -7.67891]}, "properties": {"nombre": "Ascope"}}, {"type": "Feature", "geometry": {"type": "Point", "coordinates": [-74.23873, -12.66184]}, "properties": {"nombre": "Ccorerupay Masingana y Huayccohuasi"}}, {"type": "Feature", "geometry": {"type": "Point", "coordinates": [-71.91103, -16.02567]}, "properties": {"nombre": "Taya"}}, {"type": "Feature", "geometry": {"type": "Point", "coordinates": [-76.64958, -9.66412]}, "properties": {"nombre": "Chuquis"}}, {"type": "Feature", "geometry": {"type": "Point", "coordinates": [-72.26488, -15.32114]}, "properties": {"nombre": "Misahuanca"}}, {"type": "Feature", "geometry": {"type": "Point", "coordinates": [-76.66902, -11.13593]}, "properties": {"nombre": "Chauca"}}, {"type": "Feature", "geometry": {"type": "Point", "coordinates": [-71.57527, -13.79652]}, "properties": {"nombre": "Huaraypata"}}, {"type": "Feature", "geometry": {"type": "Point", "coordinates": [-71.83957, -12.94963]}, "properties": {"nombre": "Cristo Salvador"}}, {"type": "Feature", "geometry": {"type": "Point", "coordinates": [-76.64209, -11.42409]}, "properties": {"nombre": "San Miguel"}}, {"type": "Feature", "geometry": {"type": "Point", "coordinates": [-76.14184, -11.74809]}, "properties": {"nombre": "Pomacocha"}}, {"type": "Feature", "geometry": {"type": "Point", "coordinates": [-76.9188, -9.88665]}, "properties": {"nombre": "Santa Rosa de Yaruwilca"}}, {"type": "Feature", "geometry": {"type": "Point", "coordinates": [-77.61503, -9.39766]}, "properties": {"nombre": "San Luis"}}, {"type": "Feature", "geometry": {"type": "Point", "coordinates": [-69.71816, -15.98187]}, "properties": {"nombre": "Juruhuanani"}}, {"type": "Feature", "geometry": {"type": "Point", "coordinates": [-70.37571, -13.76287]}, "properties": {"nombre": "Kanchi"}}, {"type": "Feature", "geometry": {"type": "Point", "coordinates": [-73.93738, -13.11275]}, "properties": {"nombre": "Virgen del Carmen de Ninabamba"}}, {"type": "Feature", "geometry": {"type": "Point", "coordinates": [-70.19926, -15.09802]}, "properties": {"nombre": "Mataro Chico"}}, {"type": "Feature", "geometry": {"type": "Point", "coordinates": [-71.27572, -14.21557]}, "properties": {"nombre": "Puchuri"}}, {"type": "Feature", "geometry": {"type": "Point", "coordinates": [-76.60206, -11.56039]}, "properties": {"nombre": "Lachaqui"}}, {"type": "Feature", "geometry": {"type": "Point", "coordinates": [-71.97884, -13.80499]}, "properties": {"nombre": "Nayhua"}}, {"type": "Feature", "geometry": {"type": "Point", "coordinates": [-74.6788, -12.68678]}, "properties": {"nombre": "Paccho Molinos"}}, {"type": "Feature", "geometry": {"type": "Point", "coordinates": [-76.3068, -9.58551]}, "properties": {"nombre": "Virgen de Asuncion de Roccchacc"}}, {"type": "Feature", "geometry": {"type": "Point", "coordinates": [-69.74489, -15.9977]}, "properties": {"nombre": "Caritamaya"}}, {"type": "Feature", "geometry": {"type": "Point", "coordinates": [-70.18592, -14.87789]}, "properties": {"nombre": "Primer Chimpa Jallapisi"}}, {"type": "Feature", "geometry": {"type": "Point", "coordinates": [-71.57752, -13.39035]}, "properties": {"nombre": "Santa Barbara de Huallhua"}}, {"type": "Feature", "geometry": {"type": "Point", "coordinates": [-69.8054, -16.09777]}, "properties": {"nombre": "Marca Esqueña"}}, {"type": "Feature", "geometry": {"type": "Point", "coordinates": [-69.84058, -15.85953]}, "properties": {"nombre": "Karana"}}, {"type": "Feature", "geometry": {"type": "Point", "coordinates": [-75.8554, -12.73783]}, "properties": {"nombre": "Aiza"}}, {"type": "Feature", "geometry": {"type": "Point", "coordinates": [-71.47879, -15.0267]}, "properties": {"nombre": "Hatun Aira Ccollana"}}, {"type": "Feature", "geometry": {"type": "Point", "coordinates": [-70.02946, -15.61038]}, "properties": {"nombre": "Uquisilla"}}, {"type": "Feature", "geometry": {"type": "Point", "coordinates": [-71.4545, -13.99697]}, "properties": {"nombre": "Cangalli"}}, {"type": "Feature", "geometry": {"type": "Point", "coordinates": [-69.82484, -16.12664]}, "properties": {"nombre": "Aymahui Quenarire"}}, {"type": "Feature", "geometry": {"type": "Point", "coordinates": [-76.907, -10.5459]}, "properties": {"nombre": "Antay"}}, {"type": "Feature", "geometry": {"type": "Point", "coordinates": [-79.95449, -4.55008]}, "properties": {"nombre": "Santa Rosa de Suyo"}}, {"type": "Feature", "geometry": {"type": "Point", "coordinates": [-71.05924, -14.98207]}, "properties": {"nombre": "Pirhuayani"}}, {"type": "Feature", "geometry": {"type": "Point", "coordinates": [-79.61793, -4.95052]}, "properties": {"nombre": "Vilcas"}}, {"type": "Feature", "geometry": {"type": "Point", "coordinates": [-71.37494, -14.64411]}, "properties": {"nombre": "Ccollpamayo"}}, {"type": "Feature", "geometry": {"type": "Point", "coordinates": [-77.08184, -10.19086]}, "properties": {"nombre": "Mahuay"}}, {"type": "Feature", "geometry": {"type": "Point", "coordinates": [-77.70513, -9.88155]}, "properties": {"nombre": "Quimayalluyok"}}, {"type": "Feature", "geometry": {"type": "Point", "coordinates": [-76.16926, -9.77017]}, "properties": {"nombre": "Cochabamba"}}, {"type": "Feature", "geometry": {"type": "Point", "coordinates": [-77.48263, -9.76173]}, "properties": {"nombre": "Manco Capac"}}, {"type": "Feature", "geometry": {"type": "Point", "coordinates": [-71.34277, -16.3711]}, "properties": {"nombre": "La Rinconada"}}, {"type": "Feature", "geometry": {"type": "Point", "coordinates": [-77.82128, -9.53661]}, "properties": {"nombre": "Virgen de Fatima"}}, {"type": "Feature", "geometry": {"type": "Point", "coordinates": [-72.20054, -13.45387]}, "properties": {"nombre": "Markjo"}}, {"type": "Feature", "geometry": {"type": "Point", "coordinates": [-71.60848, -13.32775]}, "properties": {"nombre": "Huaynapata"}}, {"type": "Feature", "geometry": {"type": "Point", "coordinates": [-75.98946, -11.42765]}, "properties": {"nombre": "San Jose Huaypacha"}}, {"type": "Feature", "geometry": {"type": "Point", "coordinates": [-79.63114, -4.47552]}, "properties": {"nombre": "Mostazas"}}, {"type": "Feature", "geometry": {"type": "Point", "coordinates": [-69.73448, -15.22098]}, "properties": {"nombre": "Muñapata Ayllu Jurinsaya Primer Jilata"}}, {"type": "Feature", "geometry": {"type": "Point", "coordinates": [-79.73084, -6.54636]}, "properties": {"nombre": "Manuel Arevalo Cáceres"}}, {"type": "Feature", "geometry": {"type": "Point", "coordinates": [-76.74425, -11.25181]}, "properties": {"nombre": "Ravira"}}, {"type": "Feature", "geometry": {"type": "Point", "coordinates": [-69.88204, -15.35485]}, "properties": {"nombre": "Requena"}}, {"type": "Feature", "geometry": {"type": "Point", "coordinates": [-71.71684, -14.77193]}, "properties": {"nombre": "Achahui"}}, {"type": "Feature", "geometry": {"type": "Point", "coordinates": [-79.41515, -6.26859]}, "properties": {"nombre": "Micaela Bastidas"}}, {"type": "Feature", "geometry": {"type": "Point", "coordinates": [-76.20367, -12.05624]}, "properties": {"nombre": "Rimac"}}, {"type": "Feature", "geometry": {"type": "Point", "coordinates": [-76.05654, -10.70385]}, "properties": {"nombre": "Ninacaca"}}, {"type": "Feature", "geometry": {"type": "Point", "coordinates": [-74.1143, -12.77684]}, "properties": {"nombre": "Huaychao"}}, {"type": "Feature", "geometry": {"type": "Point", "coordinates": [-79.97553, -4.81337]}, "properties": {"nombre": "Naranjo y Molino"}}, {"type": "Feature", "geometry": {"type": "Point", "coordinates": [-76.84038, -9.76457]}, "properties": {"nombre": "Racuay"}}, {"type": "Feature", "geometry": {"type": "Point", "coordinates": [-72.62477, -15.72965]}, "properties": {"nombre": "Rio Blanco"}}, {"type": "Feature", "geometry": {"type": "Point", "coordinates": [-70.9123, -14.61881]}, "properties": {"nombre": "Quishuara"}}, {"type": "Feature", "geometry": {"type": "Point", "coordinates": [-73.46775, -13.71313]}, "properties": {"nombre": "Pampamarca"}}, {"type": "Feature", "geometry": {"type": "Point", "coordinates": [-72.25688, -13.48757]}, "properties": {"nombre": "Yanama de Ayllo Mayo"}}, {"type": "Feature", "geometry": {"type": "Point", "coordinates": [-71.21571, -14.2273]}, "properties": {"nombre": "Pampa - Ansa"}}, {"type": "Feature", "geometry": {"type": "Point", "coordinates": [-71.84806, -14.42437]}, "properties": {"nombre": "Merques"}}, {"type": "Feature", "geometry": {"type": "Point", "coordinates": [-70.05081, -14.9297]}, "properties": {"nombre": "Tiramaza"}}, {"type": "Feature", "geometry": {"type": "Point", "coordinates": [-80.25288, -4.4584]}, "properties": {"nombre": "Romeros"}}, {"type": "Feature", "geometry": {"type": "Point", "coordinates": [-77.95139, -8.40229]}, "properties": {"nombre": "Cabana"}}, {"type": "Feature", "geometry": {"type": "Point", "coordinates": [-80.33542, -4.58349]}, "properties": {"nombre": "Nuestra Señora de las Mercedes"}}, {"type": "Feature", "geometry": {"type": "Point", "coordinates": [-69.95637, -16.72172]}, "properties": {"nombre": "Rosario de Saacata"}}, {"type": "Feature", "geometry": {"type": "Point", "coordinates": [-69.81162, -16.38456]}, "properties": {"nombre": "Santiago de Villacuma"}}, {"type": "Feature", "geometry": {"type": "Point", "coordinates": [-74.17917, -14.38205]}, "properties": {"nombre": "Pampahuasi"}}, {"type": "Feature", "geometry": {"type": "Point", "coordinates": [-72.20123, -14.46593]}, "properties": {"nombre": "Antuyo Llaullimarka"}}, {"type": "Feature", "geometry": {"type": "Point", "coordinates": [-77.98056, -8.95066]}, "properties": {"nombre": "Rosa Maria de Aliso"}}, {"type": "Feature", "geometry": {"type": "Point", "coordinates": [-74.08079, -12.79138]}, "properties": {"nombre": "Occoro Espincuy"}}, {"type": "Feature", "geometry": {"type": "Point", "coordinates": [-77.06294, -10.37827]}, "properties": {"nombre": "San Jeronimo de Copa"}}, {"type": "Feature", "geometry": {"type": "Point", "coordinates": [-71.75792, -14.00014]}, "properties": {"nombre": "Taucabamba"}}, {"type": "Feature", "geometry": {"type": "Point", "coordinates": [-77.57346, -7.91688]}, "properties": {"nombre": "Señor de los Desamparados"}}, {"type": "Feature", "geometry": {"type": "Point", "coordinates": [-75.44208, -13.76229]}, "properties": {"nombre": "San Jose de Tambillos"}}, {"type": "Feature", "geometry": {"type": "Point", "coordinates": [-70.38807, -14.52046]}, "properties": {"nombre": "Huanaco Mayo"}}, {"type": "Feature", "geometry": {"type": "Point", "coordinates": [-76.18313, -11.87611]}, "properties": {"nombre": "San Antonio"}}, {"type": "Feature", "geometry": {"type": "Point", "coordinates": [-71.85154, -13.6377]}, "properties": {"nombre": "Araycalla - Anyarate"}}, {"type": "Feature", "geometry": {"type": "Point", "coordinates": [-75.86618, -12.62165]}, "properties": {"nombre": "Pampas"}}, {"type": "Feature", "geometry": {"type": "Point", "coordinates": [-77.86051, -9.81256]}, "properties": {"nombre": "Ayllu Auquimarca de Quisuar"}}, {"type": "Feature", "geometry": {"type": "Point", "coordinates": [-77.82768, -8.16912]}, "properties": {"nombre": "Pampas"}}, {"type": "Feature", "geometry": {"type": "Point", "coordinates": [-74.23498, -14.82538]}, "properties": {"nombre": "San Cristobal"}}, {"type": "Feature", "geometry": {"type": "Point", "coordinates": [-75.92838, -12.91589]}, "properties": {"nombre": "San Cristobal de Chocos"}}, {"type": "Feature", "geometry": {"type": "Point", "coordinates": [-76.22452, -11.82181]}, "properties": {"nombre": "San Jose de Parac"}}, {"type": "Feature", "geometry": {"type": "Point", "coordinates": [-71.31556, -14.78428]}, "properties": {"nombre": "Chani Kanamarca"}}, {"type": "Feature", "geometry": {"type": "Point", "coordinates": [-76.51426, -12.10769]}, "properties": {"nombre": "Villa Pampilla"}}, {"type": "Feature", "geometry": {"type": "Point", "coordinates": [-72.02584, -13.4326]}, "properties": {"nombre": "Ayllo Pongo"}}, {"type": "Feature", "geometry": {"type": "Point", "coordinates": [-69.63995, -16.03801]}, "properties": {"nombre": "Cangalli  Achatuyo"}}, {"type": "Feature", "geometry": {"type": "Point", "coordinates": [-77.59421, -7.77761]}, "properties": {"nombre": "Leoncio Prado"}}, {"type": "Feature", "geometry": {"type": "Point", "coordinates": [-77.56796, -9.2739]}, "properties": {"nombre": "Copa Chico"}}, {"type": "Feature", "geometry": {"type": "Point", "coordinates": [-70.1847, -15.69473]}, "properties": {"nombre": "San Jose de Llungo"}}, {"type": "Feature", "geometry": {"type": "Point", "coordinates": [-70.84056, -14.91889]}, "properties": {"nombre": "Corani"}}, {"type": "Feature", "geometry": {"type": "Point", "coordinates": [-73.85693, -13.76682]}, "properties": {"nombre": "Curipaco"}}, {"type": "Feature", "geometry": {"type": "Point", "coordinates": [-74.26313, -13.33458]}, "properties": {"nombre": "Toccyascca"}}, {"type": "Feature", "geometry": {"type": "Point", "coordinates": [-71.82751, -13.75779]}, "properties": {"nombre": "Sutec"}}, {"type": "Feature", "geometry": {"type": "Point", "coordinates": [-74.83515, -12.55202]}, "properties": {"nombre": "Naranjal"}}, {"type": "Feature", "geometry": {"type": "Point", "coordinates": [-77.0643, -10.92212]}, "properties": {"nombre": "San Miguel de Huaca"}}, {"type": "Feature", "geometry": {"type": "Point", "coordinates": [-76.49336, -10.03789]}, "properties": {"nombre": "Cochas"}}, {"type": "Feature", "geometry": {"type": "Point", "coordinates": [-74.31464, -13.2832]}, "properties": {"nombre": "Sallalli"}}, {"type": "Feature", "geometry": {"type": "Point", "coordinates": [-70.31328, -15.09678]}, "properties": {"nombre": "Torkopi Pampa"}}, {"type": "Feature", "geometry": {"type": "Point", "coordinates": [-71.53411, -13.39971]}, "properties": {"nombre": "Humamarca"}}, {"type": "Feature", "geometry": {"type": "Point", "coordinates": [-76.77294, -9.84296]}, "properties": {"nombre": "Progreso"}}, {"type": "Feature", "geometry": {"type": "Point", "coordinates": [-74.21513, -13.56917]}, "properties": {"nombre": "San Juan de Churrupallana"}}, {"type": "Feature", "geometry": {"type": "Point", "coordinates": [-76.80835, -11.31594]}, "properties": {"nombre": "San Salvador de Pampas"}}, {"type": "Feature", "geometry": {"type": "Point", "coordinates": [-76.70015, -12.05771]}, "properties": {"nombre": "Santa Rosa de Chontay"}}, {"type": "Feature", "geometry": {"type": "Point", "coordinates": [-78.15259, -7.58848]}, "properties": {"nombre": "Chorobamba"}}, {"type": "Feature", "geometry": {"type": "Point", "coordinates": [-72.88, -15.13309]}, "properties": {"nombre": "Huampo Secsincaylla"}}, {"type": "Feature", "geometry": {"type": "Point", "coordinates": [-76.64089, -9.72885]}, "properties": {"nombre": "Chupán"}}, {"type": "Feature", "geometry": {"type": "Point", "coordinates": [-74.99234, -12.56369]}, "properties": {"nombre": "Muque"}}, {"type": "Feature", "geometry": {"type": "Point", "coordinates": [-77.40034, -8.89321]}, "properties": {"nombre": "La Libertad"}}, {"type": "Feature", "geometry": {"type": "Point", "coordinates": [-71.65901, -14.38693]}, "properties": {"nombre": "Huanaco"}}, {"type": "Feature", "geometry": {"type": "Point", "coordinates": [-75.29187, -12.91575]}, "properties": {"nombre": "Yauricocha"}}, {"type": "Feature", "geometry": {"type": "Point", "coordinates": [-69.71882, -14.89762]}, "properties": {"nombre": "Tupac Amaru de Quilca"}}, {"type": "Feature", "geometry": {"type": "Point", "coordinates": [-69.09093, -16.35836]}, "properties": {"nombre": "Ccalacoto"}}, {"type": "Feature", "geometry": {"type": "Point", "coordinates": [-72.05965, -14.30732]}, "properties": {"nombre": "Curpire"}}, {"type": "Feature", "geometry": {"type": "Point", "coordinates": [-72.16264, -13.48576]}, "properties": {"nombre": "Yungaqui"}}, {"type": "Feature", "geometry": {"type": "Point", "coordinates": [-71.30197, -14.95321]}, "properties": {"nombre": "Huisa"}}, {"type": "Feature", "geometry": {"type": "Point", "coordinates": [-76.36145, -11.63846]}, "properties": {"nombre": "Santiago de Carampoma"}}, {"type": "Feature", "geometry": {"type": "Point", "coordinates": [-74.32484, -13.17605]}, "properties": {"nombre": "La Merced de Loyanta"}}, {"type": "Feature", "geometry": {"type": "Point", "coordinates": [-72.16096, -13.44743]}, "properties": {"nombre": "Chacacurqui"}}, {"type": "Feature", "geometry": {"type": "Point", "coordinates": [-75.46413, -11.91232]}, "properties": {"nombre": "Llacuari"}}, {"type": "Feature", "geometry": {"type": "Point", "coordinates": [-71.07643, -15.10445]}, "properties": {"nombre": "Anta Cama"}}, {"type": "Feature", "geometry": {"type": "Point", "coordinates": [-72.33956, -13.46898]}, "properties": {"nombre": "Ccolccabamba"}}, {"type": "Feature", "geometry": {"type": "Point", "coordinates": [-77.74043, -9.8229]}, "properties": {"nombre": "Cori Aylluyoc"}}, {"type": "Feature", "geometry": {"type": "Point", "coordinates": [-72.13599, -12.87282]}, "properties": {"nombre": "San Jose de Colca"}}, {"type": "Feature", "geometry": {"type": "Point", "coordinates": [-70.49482, -13.9712]}, "properties": {"nombre": "Tantamaco Niahuisa"}}, {"type": "Feature", "geometry": {"type": "Point", "coordinates": [-70.26461, -14.76955]}, "properties": {"nombre": "Calahuala Camacachi"}}, {"type": "Feature", "geometry": {"type": "Point", "coordinates": [-71.86045, -12.9309]}, "properties": {"nombre": "San Jose Sahuay"}}, {"type": "Feature", "geometry": {"type": "Point", "coordinates": [-74.62058, -12.46393]}, "properties": {"nombre": "San Jeronimo de Chuspi"}}, {"type": "Feature", "geometry": {"type": "Point", "coordinates": [-77.50775, -8.90965]}, "properties": {"nombre": "Juan Velasco Alvarado"}}, {"type": "Feature", "geometry": {"type": "Point", "coordinates": [-71.30864, -14.55837]}, "properties": {"nombre": "Tjusa"}}, {"type": "Feature", "geometry": {"type": "Point", "coordinates": [-69.798, -14.91855]}, "properties": {"nombre": "Aziruni Andamarca"}}, {"type": "Feature", "geometry": {"type": "Point", "coordinates": [-70.17927, -15.26202]}, "properties": {"nombre": "Huayrapata Lluncha"}}, {"type": "Feature", "geometry": {"type": "Point", "coordinates": [-72.00407, -13.63453]}, "properties": {"nombre": "Checco Pucca"}}, {"type": "Feature", "geometry": {"type": "Point", "coordinates": [-70.05274, -16.1818]}, "properties": {"nombre": "San Juan de Laconi"}}, {"type": "Feature", "geometry": {"type": "Point", "coordinates": [-75.79464, -12.54884]}, "properties": {"nombre": "Quisque"}}, {"type": "Feature", "geometry": {"type": "Point", "coordinates": [-72.22658, -13.35246]}, "properties": {"nombre": "Huayllas"}}, {"type": "Feature", "geometry": {"type": "Point", "coordinates": [-69.84496, -15.84578]}, "properties": {"nombre": "Parina"}}, {"type": "Feature", "geometry": {"type": "Point", "coordinates": [-69.70063, -15.15283]}, "properties": {"nombre": "Culachata"}}, {"type": "Feature", "geometry": {"type": "Point", "coordinates": [-69.76127, -14.94151]}, "properties": {"nombre": "Janansaya"}}, {"type": "Feature", "geometry": {"type": "Point", "coordinates": [-77.4523, -9.5107]}, "properties": {"nombre": "Cahuide"}}, {"type": "Feature", "geometry": {"type": "Point", "coordinates": [-74.81675, -12.53193]}, "properties": {"nombre": "Chupaca"}}, {"type": "Feature", "geometry": {"type": "Point", "coordinates": [-69.66034, -16.1056]}, "properties": {"nombre": "Lacutuyo Choconapi"}}, {"type": "Feature", "geometry": {"type": "Point", "coordinates": [-71.67997, -13.65649]}, "properties": {"nombre": "Secsencalla"}}, {"type": "Feature", "geometry": {"type": "Point", "coordinates": [-73.12154, -13.63163]}, "properties": {"nombre": "Ccallaspuquio Pumarcco"}}, {"type": "Feature", "geometry": {"type": "Point", "coordinates": [-76.67096, -12.17414]}, "properties": {"nombre": "Cucuya"}}, {"type": "Feature", "geometry": {"type": "Point", "coordinates": [-71.43152, -14.57925]}, "properties": {"nombre": "Chañi"}}, {"type": "Feature", "geometry": {"type": "Point", "coordinates": [-71.90602, -13.3525]}, "properties": {"nombre": "Huanca Ayllo"}}, {"type": "Feature", "geometry": {"type": "Point", "coordinates": [-80.42145, -4.68773]}, "properties": {"nombre": "Virgen del Cisne"}}, {"type": "Feature", "geometry": {"type": "Point", "coordinates": [-74.57785, -12.88027]}, "properties": {"nombre": "Allpas"}}, {"type": "Feature", "geometry": {"type": "Point", "coordinates": [-71.24428, -15.01598]}, "properties": {"nombre": "Hanccollahua"}}, {"type": "Feature", "geometry": {"type": "Point", "coordinates": [-71.88181, -15.05967]}, "properties": {"nombre": "Santa Rosa"}}, {"type": "Feature", "geometry": {"type": "Point", "coordinates": [-75.66082, -12.28495]}, "properties": {"nombre": "Tinco"}}, {"type": "Feature", "geometry": {"type": "Point", "coordinates": [-72.83435, -13.83865]}, "properties": {"nombre": "Siusay"}}, {"type": "Feature", "geometry": {"type": "Point", "coordinates": [-70.23454, -15.11796]}, "properties": {"nombre": "Varejon"}}, {"type": "Feature", "geometry": {"type": "Point", "coordinates": [-75.4096, -13.56725]}, "properties": {"nombre": "Quito y Chocorvo Arma"}}, {"type": "Feature", "geometry": {"type": "Point", "coordinates": [-74.28775, -13.17017]}, "properties": {"nombre": "San Lorenzo de Cochabamba"}}, {"type": "Feature", "geometry": {"type": "Point", "coordinates": [-76.70917, -11.22005]}, "properties": {"nombre": "Viscas"}}, {"type": "Feature", "geometry": {"type": "Point", "coordinates": [-79.46503, -6.36287]}, "properties": {"nombre": "San Antonio de Liquipampa"}}, {"type": "Feature", "geometry": {"type": "Point", "coordinates": [-76.72619, -11.2856]}, "properties": {"nombre": "Cormo"}}, {"type": "Feature", "geometry": {"type": "Point", "coordinates": [-69.87243, -14.50568]}, "properties": {"nombre": "Toma"}}, {"type": "Feature", "geometry": {"type": "Point", "coordinates": [-69.64805, -15.03331]}, "properties": {"nombre": "Tres de Mayo Tocrahuyo Huilatirani"}}, {"type": "Feature", "geometry": {"type": "Point", "coordinates": [-75.39497, -13.61219]}, "properties": {"nombre": "Huaytara"}}, {"type": "Feature", "geometry": {"type": "Point", "coordinates": [-71.90784, -13.78082]}, "properties": {"nombre": "Paccarectambo"}}, {"type": "Feature", "geometry": {"type": "Point", "coordinates": [-70.51249, -14.03768]}, "properties": {"nombre": "Tantamaco Niahuisa"}}, {"type": "Feature", "geometry": {"type": "Point", "coordinates": [-74.71133, -4.48404]}, "properties": {"nombre": "Roca Fuerte"}}, {"type": "Feature", "geometry": {"type": "Point", "coordinates": [-70.52146, -15.86132]}, "properties": {"nombre": "Añavile"}}, {"type": "Feature", "geometry": {"type": "Point", "coordinates": [-74.52988, -12.84726]}, "properties": {"nombre": "Choclococha, Yanacocha, Chilcapite"}}, {"type": "Feature", "geometry": {"type": "Point", "coordinates": [-76.79858, -10.68615]}, "properties": {"nombre": "Viroc"}}, {"type": "Feature", "geometry": {"type": "Point", "coordinates": [-71.72005, -13.76552]}, "properties": {"nombre": "Yanaccocha"}}, {"type": "Feature", "geometry": {"type": "Point", "coordinates": [-77.51375, -10.27055]}, "properties": {"nombre": "Corazon de Jesus"}}, {"type": "Feature", "geometry": {"type": "Point", "coordinates": [-79.46482, -5.87486]}, "properties": {"nombre": "Chinche Tallacas"}}, {"type": "Feature", "geometry": {"type": "Point", "coordinates": [-71.61478, -14.30999]}, "properties": {"nombre": "Aucho"}}, {"type": "Feature", "geometry": {"type": "Point", "coordinates": [-76.57456, -9.56329]}, "properties": {"nombre": "San Francisco de Marias"}}, {"type": "Feature", "geometry": {"type": "Point", "coordinates": [-77.06594, -10.63358]}, "properties": {"nombre": "Virunhuaira y Aguas"}}, {"type": "Feature", "geometry": {"type": "Point", "coordinates": [-80.37822, -4.69229]}, "properties": {"nombre": "Cury Lagartos"}}, {"type": "Feature", "geometry": {"type": "Point", "coordinates": [-76.6603, -11.53836]}, "properties": {"nombre": "Viscas Bellavista"}}, {"type": "Feature", "geometry": {"type": "Point", "coordinates": [-72.0168, -13.3882]}, "properties": {"nombre": "Cuper"}}, {"type": "Feature", "geometry": {"type": "Point", "coordinates": [-70.60853, -16.14635]}, "properties": {"nombre": "Santa Cruz de Oyo Oyo"}}, {"type": "Feature", "geometry": {"type": "Point", "coordinates": [-76.61253, -9.96748]}, "properties": {"nombre": "Caramarca"}}, {"type": "Feature", "geometry": {"type": "Point", "coordinates": [-72.26752, -13.08889]}, "properties": {"nombre": "Yanamayo"}}, {"type": "Feature", "geometry": {"type": "Point", "coordinates": [-78.63821, -7.21803]}, "properties": {"nombre": "Cumbico"}}, {"type": "Feature", "geometry": {"type": "Point", "coordinates": [-74.11369, -13.19065]}, "properties": {"nombre": "Tambillo"}}, {"type": "Feature", "geometry": {"type": "Point", "coordinates": [-71.80694, -13.3583]}, "properties": {"nombre": "Paru Paru"}}, {"type": "Feature", "geometry": {"type": "Point", "coordinates": [-71.3338, -14.28008]}, "properties": {"nombre": "Huayllani Pacpaca"}}, {"type": "Feature", "geometry": {"type": "Point", "coordinates": [-69.03025, -16.33845]}, "properties": {"nombre": "Sanquira"}}, {"type": "Feature", "geometry": {"type": "Point", "coordinates": [-74.19839, -13.39217]}, "properties": {"nombre": "Minascucho"}}, {"type": "Feature", "geometry": {"type": "Point", "coordinates": [-69.22516, -14.53963]}, "properties": {"nombre": "Girigachi"}}, {"type": "Feature", "geometry": {"type": "Point", "coordinates": [-71.11903, -14.14239]}, "properties": {"nombre": "Irubamba Machaccoyo Occopata"}}, {"type": "Feature", "geometry": {"type": "Point", "coordinates": [-71.54551, -16.45501]}, "properties": {"nombre": "Pampas Viejas de Socabaya"}}, {"type": "Feature", "geometry": {"type": "Point", "coordinates": [-72.44687, -15.1943]}, "properties": {"nombre": "Umachulco"}}, {"type": "Feature", "geometry": {"type": "Point", "coordinates": [-69.59668, -16.05067]}, "properties": {"nombre": "Unidas Jilata"}}, {"type": "Feature", "geometry": {"type": "Point", "coordinates": [-70.5424, -16.20037]}, "properties": {"nombre": "Corire"}}, {"type": "Feature", "geometry": {"type": "Point", "coordinates": [-76.30656, -12.35788]}, "properties": {"nombre": "Viscas"}}, {"type": "Feature", "geometry": {"type": "Point", "coordinates": [-72.68569, -15.13308]}, "properties": {"nombre": "Challpa Pullhuay Yanacanta"}}, {"type": "Feature", "geometry": {"type": "Point", "coordinates": [-74.67531, -14.66281]}, "properties": {"nombre": "Uchuymarca"}}, {"type": "Feature", "geometry": {"type": "Point", "coordinates": [-73.82614, -13.53323]}, "properties": {"nombre": "Chacari"}}, {"type": "Feature", "geometry": {"type": "Point", "coordinates": [-74.29399, -12.87943]}, "properties": {"nombre": "San Pedro de Pampay"}}, {"type": "Feature", "geometry": {"type": "Point", "coordinates": [-74.10019, -13.59341]}, "properties": {"nombre": "Putica"}}, {"type": "Feature", "geometry": {"type": "Point", "coordinates": [-74.88609, -12.64381]}, "properties": {"nombre": "Union Progreso Pucacancha"}}, {"type": "Feature", "geometry": {"type": "Point", "coordinates": [-70.47903, -16.15603]}, "properties": {"nombre": "Crucero"}}, {"type": "Feature", "geometry": {"type": "Point", "coordinates": [-71.39631, -14.52633]}, "properties": {"nombre": "Sausaya"}}, {"type": "Feature", "geometry": {"type": "Point", "coordinates": [-71.55638, -13.85357]}, "properties": {"nombre": "Huaccaytaqui"}}, {"type": "Feature", "geometry": {"type": "Point", "coordinates": [-75.93095, -12.43511]}, "properties": {"nombre": "Yauyos"}}, {"type": "Feature", "geometry": {"type": "Point", "coordinates": [-73.86523, -13.02255]}, "properties": {"nombre": "Virgen de Cocharcas de Cochas"}}, {"type": "Feature", "geometry": {"type": "Point", "coordinates": [-78.34408, -7.02288]}, "properties": {"nombre": "La Encañada"}}, {"type": "Feature", "geometry": {"type": "Point", "coordinates": [-70.2857, -17.5009]}, "properties": {"nombre": "Chipispaya"}}, {"type": "Feature", "geometry": {"type": "Point", "coordinates": [-72.23126, -13.428]}, "properties": {"nombre": "Rahuanqui"}}, {"type": "Feature", "geometry": {"type": "Point", "coordinates": [-71.87426, -14.34306]}, "properties": {"nombre": "Cconcha Ccollo"}}, {"type": "Feature", "geometry": {"type": "Point", "coordinates": [-72.78896, -15.09049]}, "properties": {"nombre": "Piramarca"}}, {"type": "Feature", "geometry": {"type": "Point", "coordinates": [-71.08481, -13.78724]}, "properties": {"nombre": "Sallani"}}, {"type": "Feature", "geometry": {"type": "Point", "coordinates": [-70.36548, -14.9965]}, "properties": {"nombre": "Isla Ticca Huito"}}, {"type": "Feature", "geometry": {"type": "Point", "coordinates": [-76.42519, -10.367]}, "properties": {"nombre": "San Juan de Paucar"}}, {"type": "Feature", "geometry": {"type": "Point", "coordinates": [-77.40535, -8.65461]}, "properties": {"nombre": "Ocopon"}}, {"type": "Feature", "geometry": {"type": "Point", "coordinates": [-73.55333, -13.71957]}, "properties": {"nombre": "Mollepata"}}, {"type": "Feature", "geometry": {"type": "Point", "coordinates": [-77.45678, -8.6583]}, "properties": {"nombre": "Socosbamba"}}, {"type": "Feature", "geometry": {"type": "Point", "coordinates": [-71.24935, -14.18586]}, "properties": {"nombre": "Ccanccahua"}}, {"type": "Feature", "geometry": {"type": "Point", "coordinates": [-76.57426, -11.29159]}, "properties": {"nombre": "Pirca"}}, {"type": "Feature", "geometry": {"type": "Point", "coordinates": [-69.09298, -16.3153]}, "properties": {"nombre": "Santa Rosa de Pichicho"}}, {"type": "Feature", "geometry": {"type": "Point", "coordinates": [-69.89087, -15.09899]}, "properties": {"nombre": "Alto Trapiche"}}, {"type": "Feature", "geometry": {"type": "Point", "coordinates": [-69.98721, -14.96184]}, "properties": {"nombre": "Esquina Pata"}}, {"type": "Feature", "geometry": {"type": "Point", "coordinates": [-79.36941, -7.19046]}, "properties": {"nombre": "Chepen"}}, {"type": "Feature", "geometry": {"type": "Point", "coordinates": [-75.34544, -11.97771]}, "properties": {"nombre": "Vicso"}}, {"type": "Feature", "geometry": {"type": "Point", "coordinates": [-70.31047, -15.15472]}, "properties": {"nombre": "Chicchipani"}}, {"type": "Feature", "geometry": {"type": "Point", "coordinates": [-72.06809, -14.67839]}, "properties": {"nombre": "Vista Alegre de Santiago y Anexo Corazon"}}, {"type": "Feature", "geometry": {"type": "Point", "coordinates": [-70.95906, -13.58342]}, "properties": {"nombre": "No se sabe"}}, {"type": "Feature", "geometry": {"type": "Point", "coordinates": [-76.46638, -13.03643]}, "properties": {"nombre": "Cerro Azul"}}, {"type": "Feature", "geometry": {"type": "Point", "coordinates": [-70.26119, -17.32795]}, "properties": {"nombre": "Quilahuani"}}, {"type": "Feature", "geometry": {"type": "Point", "coordinates": [-69.71212, -14.63248]}, "properties": {"nombre": "Chuquine y Anexos  Condorumaña y Jilokara Collpa"}}, {"type": "Feature", "geometry": {"type": "Point", "coordinates": [-69.9138, -15.17719]}, "properties": {"nombre": "Caminacoya"}}, {"type": "Feature", "geometry": {"type": "Point", "coordinates": [-71.81961, -14.74287]}, "properties": {"nombre": "Cangalle"}}, {"type": "Feature", "geometry": {"type": "Point", "coordinates": [-77.73814, -7.59468]}, "properties": {"nombre": "La Victoria"}}, {"type": "Feature", "geometry": {"type": "Point", "coordinates": [-71.27548, -14.22615]}, "properties": {"nombre": "Lari"}}, {"type": "Feature", "geometry": {"type": "Point", "coordinates": [-71.76927, -13.96013]}, "properties": {"nombre": "Pillpinto"}}, {"type": "Feature", "geometry": {"type": "Point", "coordinates": [-69.69436, -16.18632]}, "properties": {"nombre": "Chingani"}}, {"type": "Feature", "geometry": {"type": "Point", "coordinates": [-72.00883, -14.24427]}, "properties": {"nombre": "Charamuray"}}, {"type": "Feature", "geometry": {"type": "Point", "coordinates": [-77.89486, -8.97175]}, "properties": {"nombre": "Francisco Bolognesi de Ancoraca"}}, {"type": "Feature", "geometry": {"type": "Point", "coordinates": [-77.41169, -8.82756]}, "properties": {"nombre": "Virgen de la Candelaria"}}, {"type": "Feature", "geometry": {"type": "Point", "coordinates": [-74.56901, -15.25004]}, "properties": {"nombre": "Otapara"}}, {"type": "Feature", "geometry": {"type": "Point", "coordinates": [-71.70148, -14.89496]}, "properties": {"nombre": "Tahuapalcca"}}, {"type": "Feature", "geometry": {"type": "Point", "coordinates": [-71.4977, -13.98545]}, "properties": {"nombre": "Chuquicahuana"}}, {"type": "Feature", "geometry": {"type": "Point", "coordinates": [-78.25637, -8.8724]}, "properties": {"nombre": "Lacramarca"}}, {"type": "Feature", "geometry": {"type": "Point", "coordinates": [-69.95262, -15.13119]}, "properties": {"nombre": "Alto Parque"}}, {"type": "Feature", "geometry": {"type": "Point", "coordinates": [-76.88251, -9.89883]}, "properties": {"nombre": "Santa Rosa de Yaruwilca"}}, {"type": "Feature", "geometry": {"type": "Point", "coordinates": [-71.20875, -14.16133]}, "properties": {"nombre": "Santa Barbara"}}, {"type": "Feature", "geometry": {"type": "Point", "coordinates": [-69.97795, -15.1183]}, "properties": {"nombre": "Santa Cruz de Chacapunta"}}, {"type": "Feature", "geometry": {"type": "Point", "coordinates": [-74.88906, -12.56766]}, "properties": {"nombre": "Chunca Jatuspata Lirio Auquis Atayllama"}}, {"type": "Feature", "geometry": {"type": "Point", "coordinates": [-71.53518, -13.85986]}, "properties": {"nombre": "Antisuyo"}}, {"type": "Feature", "geometry": {"type": "Point", "coordinates": [-72.02584, -13.71113]}, "properties": {"nombre": "Molle Molle"}}, {"type": "Feature", "geometry": {"type": "Point", "coordinates": [-69.93936, -15.14223]}, "properties": {"nombre": "Alto Escantapi"}}, {"type": "Feature", "geometry": {"type": "Point", "coordinates": [-73.00005, -15.73206]}, "properties": {"nombre": "Ispacas"}}, {"type": "Feature", "geometry": {"type": "Point", "coordinates": [-71.46312, -15.17341]}, "properties": {"nombre": "Ccota Ccota"}}, {"type": "Feature", "geometry": {"type": "Point", "coordinates": [-72.7338, -13.79354]}, "properties": {"nombre": "Kishuara"}}, {"type": "Feature", "geometry": {"type": "Point", "coordinates": [-72.28274, -13.53757]}, "properties": {"nombre": "Pantipata"}}, {"type": "Feature", "geometry": {"type": "Point", "coordinates": [-71.7828, -15.59693]}, "properties": {"nombre": "Lari"}}, {"type": "Feature", "geometry": {"type": "Point", "coordinates": [-71.41202, -14.15333]}, "properties": {"nombre": "Tinta"}}, {"type": "Feature", "geometry": {"type": "Point", "coordinates": [-76.23347, -11.97702]}, "properties": {"nombre": "Lupo"}}, {"type": "Feature", "geometry": {"type": "Point", "coordinates": [-76.38026, -10.78319]}, "properties": {"nombre": "San Pedro de Racco"}}, {"type": "Feature", "geometry": {"type": "Point", "coordinates": [-76.74551, -9.46822]}, "properties": {"nombre": "San Antonio"}}, {"type": "Feature", "geometry": {"type": "Point", "coordinates": [-74.31047, -13.16476]}, "properties": {"nombre": "Cedro"}}, {"type": "Feature", "geometry": {"type": "Point", "coordinates": [-74.10754, -13.21829]}, "properties": {"nombre": "Santa Cruz de Ccechcca"}}, {"type": "Feature", "geometry": {"type": "Point", "coordinates": [-73.14841, -13.6021]}, "properties": {"nombre": "Belen Anta"}}, {"type": "Feature", "geometry": {"type": "Point", "coordinates": [-78.00374, -9.14053]}, "properties": {"nombre": "Mateo Rivera"}}, {"type": "Feature", "geometry": {"type": "Point", "coordinates": [-74.22008, -13.63732]}, "properties": {"nombre": "Unya"}}, {"type": "Feature", "geometry": {"type": "Point", "coordinates": [-72.55766, -15.74514]}, "properties": {"nombre": "Piscopampa"}}, {"type": "Feature", "geometry": {"type": "Point", "coordinates": [-77.81542, -9.50613]}, "properties": {"nombre": "Pam Pan"}}, {"type": "Feature", "geometry": {"type": "Point", "coordinates": [-71.66882, -13.53579]}, "properties": {"nombre": "Pitucancha"}}, {"type": "Feature", "geometry": {"type": "Point", "coordinates": [-76.62279, -11.49702]}, "properties": {"nombre": "Pariamarca"}}, {"type": "Feature", "geometry": {"type": "Point", "coordinates": [-71.92119, -13.94347]}, "properties": {"nombre": "Ppoccorhuay"}}, {"type": "Feature", "geometry": {"type": "Point", "coordinates": [-77.76042, -5.91356]}, "properties": {"nombre": "Chisquilla"}}, {"type": "Feature", "geometry": {"type": "Point", "coordinates": [-69.45185, -15.15016]}, "properties": {"nombre": "Yaputira"}}, {"type": "Feature", "geometry": {"type": "Point", "coordinates": [-73.78475, -3.93648]}, "properties": {"nombre": "Diamante Azul"}}, {"type": "Feature", "geometry": {"type": "Point", "coordinates": [-78.43531, -9.27391]}, "properties": {"nombre": "Huambacho"}}, {"type": "Feature", "geometry": {"type": "Point", "coordinates": [-76.4355, -10.20644]}, "properties": {"nombre": "Liberacion de Yauran"}}, {"type": "Feature", "geometry": {"type": "Point", "coordinates": [-76.62742, -9.8886]}, "properties": {"nombre": "Chacabamba"}}, {"type": "Feature", "geometry": {"type": "Point", "coordinates": [-72.06853, -13.35871]}, "properties": {"nombre": "Racchi Ayllo"}}, {"type": "Feature", "geometry": {"type": "Point", "coordinates": [-71.10141, -14.28225]}, "properties": {"nombre": "Condorsencca"}}, {"type": "Feature", "geometry": {"type": "Point", "coordinates": [-72.02454, -14.37176]}, "properties": {"nombre": "Ahuichanta Huisuray"}}, {"type": "Feature", "geometry": {"type": "Point", "coordinates": [-71.6337, -13.90712]}, "properties": {"nombre": "Sangarara"}}, {"type": "Feature", "geometry": {"type": "Point", "coordinates": [-76.77473, -10.99286]}, "properties": {"nombre": "Mayobamba"}}, {"type": "Feature", "geometry": {"type": "Point", "coordinates": [-78.63136, -6.9624]}, "properties": {"nombre": "Morohuisha Lote Cuarenta y Tres"}}, {"type": "Feature", "geometry": {"type": "Point", "coordinates": [-70.23924, -14.47022]}, "properties": {"nombre": "Yaurifina Catuyo Chico"}}, {"type": "Feature", "geometry": {"type": "Point", "coordinates": [-69.25082, -16.38632]}, "properties": {"nombre": "Tuquina"}},